<?xml version="1.0" encoding="UTF-8" standalone="yes"?>
<kml xmlns="http://www.opengis.net/kml/2.2" xmlns:gx="http://www.google.com/kml/ext/2.2" xmlns:atom="http://www.w3.org/2005/Atom" xmlns:xal="urn:oasis:names:tc:ciq:xsdschema:xAL:2.0">
    <Document>
        <Placemark>
            <name>Ariel_University</name>
            <open>1</open>
            <TimeStamp>
                <when>2017-12-03T08:49:10Z</when>
            </TimeStamp>
            <Point>
                <coordinates>35.21117792,32.10496904,695.0</coordinates>
            </Point>
        </Placemark>
        <Placemark>
            <name>DIRECT-98-HP DeskJet 3630 series</name>
            <open>1</open>
            <TimeStamp>
                <when>2017-12-03T08:49:29Z</when>
            </TimeStamp>
            <Point>
                <coordinates>35.2111867,32.10497406,696.0</coordinates>
            </Point>
        </Placemark>
        <Placemark>
            <name>DIRECT-69-HP DeskJet 3630 series</name>
            <open>1</open>
            <TimeStamp>
                <when>2017-12-03T08:49:32Z</when>
            </TimeStamp>
            <Point>
                <coordinates>35.21118447,32.10497523,698.0</coordinates>
            </Point>
        </Placemark>
        <Placemark>
            <name>Ariel_University</name>
            <open>1</open>
            <TimeStamp>
                <when>2017-12-03T08:49:41Z</when>
            </TimeStamp>
            <Point>
                <coordinates>35.21100415,32.10506418,699.0</coordinates>
            </Point>
        </Placemark>
        <Placemark>
            <name>HP-Print-30-Officejet 7610</name>
            <open>1</open>
            <TimeStamp>
                <when>2017-12-03T08:49:44Z</when>
            </TimeStamp>
            <Point>
                <coordinates>35.21079779,32.10503872,690.0</coordinates>
            </Point>
        </Placemark>
        <Placemark>
            <name>Ariel_University</name>
            <open>1</open>
            <TimeStamp>
                <when>2017-12-03T08:49:44Z</when>
            </TimeStamp>
            <Point>
                <coordinates>35.21079779,32.10503872,690.0</coordinates>
            </Point>
        </Placemark>
        <Placemark>
            <name>giftwizard</name>
            <open>1</open>
            <TimeStamp>
                <when>2017-12-03T08:49:44Z</when>
            </TimeStamp>
            <Point>
                <coordinates>35.21079779,32.10503872,690.0</coordinates>
            </Point>
        </Placemark>
        <Placemark>
            <name>Afikim_Wifi</name>
            <open>1</open>
            <TimeStamp>
                <when>2017-12-03T08:49:44Z</when>
            </TimeStamp>
            <Point>
                <coordinates>35.21079779,32.10503872,690.0</coordinates>
            </Point>
        </Placemark>
        <Placemark>
            <name>Ariel_University</name>
            <open>1</open>
            <TimeStamp>
                <when>2017-12-03T08:49:49Z</when>
            </TimeStamp>
            <Point>
                <coordinates>35.21047465,32.10495031,690.0</coordinates>
            </Point>
        </Placemark>
        <Placemark>
            <name>Ariel_University</name>
            <open>1</open>
            <TimeStamp>
                <when>2017-12-03T08:49:52Z</when>
            </TimeStamp>
            <Point>
                <coordinates>35.21030041,32.10486791,691.0</coordinates>
            </Point>
        </Placemark>
        <Placemark>
            <name>Ariel_University</name>
            <open>1</open>
            <TimeStamp>
                <when>2017-12-03T08:49:52Z</when>
            </TimeStamp>
            <Point>
                <coordinates>35.21030041,32.10486791,691.0</coordinates>
            </Point>
        </Placemark>
        <Placemark>
            <name>Ariel_University</name>
            <open>1</open>
            <TimeStamp>
                <when>2017-12-03T08:49:52Z</when>
            </TimeStamp>
            <Point>
                <coordinates>35.21030041,32.10486791,691.0</coordinates>
            </Point>
        </Placemark>
        <Placemark>
            <name>EVE</name>
            <open>1</open>
            <TimeStamp>
                <when>2017-12-03T08:49:55Z</when>
            </TimeStamp>
            <Point>
                <coordinates>35.21014859,32.104798,685.0</coordinates>
            </Point>
        </Placemark>
        <Placemark>
            <name>magneto</name>
            <open>1</open>
            <TimeStamp>
                <when>2017-12-03T08:49:55Z</when>
            </TimeStamp>
            <Point>
                <coordinates>35.21014859,32.104798,685.0</coordinates>
            </Point>
        </Placemark>
        <Placemark>
            <name>Ariel_University</name>
            <open>1</open>
            <TimeStamp>
                <when>2017-12-03T08:49:55Z</when>
            </TimeStamp>
            <Point>
                <coordinates>35.21014859,32.104798,685.0</coordinates>
            </Point>
        </Placemark>
        <Placemark>
            <name>Ariel_University</name>
            <open>1</open>
            <TimeStamp>
                <when>2017-12-03T08:49:55Z</when>
            </TimeStamp>
            <Point>
                <coordinates>35.21014859,32.104798,685.0</coordinates>
            </Point>
        </Placemark>
        <Placemark>
            <name>Ariel_University</name>
            <open>1</open>
            <TimeStamp>
                <when>2017-12-03T08:49:55Z</when>
            </TimeStamp>
            <Point>
                <coordinates>35.21014859,32.104798,685.0</coordinates>
            </Point>
        </Placemark>
        <Placemark>
            <name>Ariel_University</name>
            <open>1</open>
            <TimeStamp>
                <when>2017-12-03T08:49:55Z</when>
            </TimeStamp>
            <Point>
                <coordinates>35.21014859,32.104798,685.0</coordinates>
            </Point>
        </Placemark>
        <Placemark>
            <name>Ariel_University</name>
            <open>1</open>
            <TimeStamp>
                <when>2017-12-03T08:49:55Z</when>
            </TimeStamp>
            <Point>
                <coordinates>35.21014859,32.104798,685.0</coordinates>
            </Point>
        </Placemark>
        <Placemark>
            <name>outsense</name>
            <open>1</open>
            <TimeStamp>
                <when>2017-12-03T08:49:58Z</when>
            </TimeStamp>
            <Point>
                <coordinates>35.21000489,32.10473133,687.0</coordinates>
            </Point>
        </Placemark>
        <Placemark>
            <name>Ariel_University</name>
            <open>1</open>
            <TimeStamp>
                <when>2017-12-03T08:49:58Z</when>
            </TimeStamp>
            <Point>
                <coordinates>35.21000489,32.10473133,687.0</coordinates>
            </Point>
        </Placemark>
        <Placemark>
            <name>HP-Print-30-Officejet 7610</name>
            <open>1</open>
            <TimeStamp>
                <when>2017-12-03T08:49:58Z</when>
            </TimeStamp>
            <Point>
                <coordinates>35.21000489,32.10473133,687.0</coordinates>
            </Point>
        </Placemark>
        <Placemark>
            <name>Guest</name>
            <open>1</open>
            <TimeStamp>
                <when>2017-12-03T08:49:58Z</when>
            </TimeStamp>
            <Point>
                <coordinates>35.21000489,32.10473133,687.0</coordinates>
            </Point>
        </Placemark>
        <Placemark>
            <name>yosh</name>
            <open>1</open>
            <TimeStamp>
                <when>2017-12-03T08:49:58Z</when>
            </TimeStamp>
            <Point>
                <coordinates>35.21000489,32.10473133,687.0</coordinates>
            </Point>
        </Placemark>
        <Placemark>
            <name>Ariel_University</name>
            <open>1</open>
            <TimeStamp>
                <when>2017-12-03T08:49:58Z</when>
            </TimeStamp>
            <Point>
                <coordinates>35.21000489,32.10473133,687.0</coordinates>
            </Point>
        </Placemark>
        <Placemark>
            <name>YICarCam_fb9630</name>
            <open>1</open>
            <TimeStamp>
                <when>2017-12-03T08:49:58Z</when>
            </TimeStamp>
            <Point>
                <coordinates>35.21000489,32.10473133,687.0</coordinates>
            </Point>
        </Placemark>
        <Placemark>
            <name>HP-Print-2c-LaserJet 400 color</name>
            <open>1</open>
            <TimeStamp>
                <when>2017-12-03T08:49:58Z</when>
            </TimeStamp>
            <Point>
                <coordinates>35.21000489,32.10473133,687.0</coordinates>
            </Point>
        </Placemark>
        <Placemark>
            <name>shapedo</name>
            <open>1</open>
            <TimeStamp>
                <when>2017-12-03T08:50:01Z</when>
            </TimeStamp>
            <Point>
                <coordinates>35.20984776,32.10465093,688.0</coordinates>
            </Point>
        </Placemark>
        <Placemark>
            <name>Guest</name>
            <open>1</open>
            <TimeStamp>
                <when>2017-12-03T08:50:01Z</when>
            </TimeStamp>
            <Point>
                <coordinates>35.20984776,32.10465093,688.0</coordinates>
            </Point>
        </Placemark>
        <Placemark>
            <name>iagree</name>
            <open>1</open>
            <TimeStamp>
                <when>2017-12-03T08:50:01Z</when>
            </TimeStamp>
            <Point>
                <coordinates>35.20984776,32.10465093,688.0</coordinates>
            </Point>
        </Placemark>
        <Placemark>
            <name>Neuropplied</name>
            <open>1</open>
            <TimeStamp>
                <when>2017-12-03T08:50:01Z</when>
            </TimeStamp>
            <Point>
                <coordinates>35.20984776,32.10465093,688.0</coordinates>
            </Point>
        </Placemark>
        <Placemark>
            <name>Ariel_University</name>
            <open>1</open>
            <TimeStamp>
                <when>2017-12-03T08:50:01Z</when>
            </TimeStamp>
            <Point>
                <coordinates>35.20984776,32.10465093,688.0</coordinates>
            </Point>
        </Placemark>
        <Placemark>
            <name>HP-Print-30-Officejet 7610</name>
            <open>1</open>
            <TimeStamp>
                <when>2017-12-03T08:50:01Z</when>
            </TimeStamp>
            <Point>
                <coordinates>35.20984776,32.10465093,688.0</coordinates>
            </Point>
        </Placemark>
        <Placemark>
            <name>Guest</name>
            <open>1</open>
            <TimeStamp>
                <when>2017-12-03T08:50:01Z</when>
            </TimeStamp>
            <Point>
                <coordinates>35.20984776,32.10465093,688.0</coordinates>
            </Point>
        </Placemark>
        <Placemark>
            <name>outsense</name>
            <open>1</open>
            <TimeStamp>
                <when>2017-12-03T08:50:01Z</when>
            </TimeStamp>
            <Point>
                <coordinates>35.20984776,32.10465093,688.0</coordinates>
            </Point>
        </Placemark>
        <Placemark>
            <name>Ariel_University</name>
            <open>1</open>
            <TimeStamp>
                <when>2017-12-03T08:50:01Z</when>
            </TimeStamp>
            <Point>
                <coordinates>35.20984776,32.10465093,688.0</coordinates>
            </Point>
        </Placemark>
        <Placemark>
            <name>Ariel_University</name>
            <open>1</open>
            <TimeStamp>
                <when>2017-12-03T08:50:01Z</when>
            </TimeStamp>
            <Point>
                <coordinates>35.20984776,32.10465093,688.0</coordinates>
            </Point>
        </Placemark>
        <Placemark>
            <name>TP-LINK_ADD150</name>
            <open>1</open>
            <TimeStamp>
                <when>2017-12-03T08:50:04Z</when>
            </TimeStamp>
            <Point>
                <coordinates>35.2096924,32.10455252,689.0</coordinates>
            </Point>
        </Placemark>
        <Placemark>
            <name>Ariel_University</name>
            <open>1</open>
            <TimeStamp>
                <when>2017-12-03T08:50:04Z</when>
            </TimeStamp>
            <Point>
                <coordinates>35.2096924,32.10455252,689.0</coordinates>
            </Point>
        </Placemark>
        <Placemark>
            <name>Ariel_University</name>
            <open>1</open>
            <TimeStamp>
                <when>2017-12-03T08:50:04Z</when>
            </TimeStamp>
            <Point>
                <coordinates>35.2096924,32.10455252,689.0</coordinates>
            </Point>
        </Placemark>
        <Placemark>
            <name>DIRECT-66-HP DeskJet 3630 series</name>
            <open>1</open>
            <TimeStamp>
                <when>2017-12-03T08:50:04Z</when>
            </TimeStamp>
            <Point>
                <coordinates>35.2096924,32.10455252,689.0</coordinates>
            </Point>
        </Placemark>
        <Placemark>
            <name>DIRECT-6E-HP DeskJet 3630 series</name>
            <open>1</open>
            <TimeStamp>
                <when>2017-12-03T08:50:04Z</when>
            </TimeStamp>
            <Point>
                <coordinates>35.2096924,32.10455252,689.0</coordinates>
            </Point>
        </Placemark>
        <Placemark>
            <name>giftwizard</name>
            <open>1</open>
            <TimeStamp>
                <when>2017-12-03T08:50:04Z</when>
            </TimeStamp>
            <Point>
                <coordinates>35.2096924,32.10455252,689.0</coordinates>
            </Point>
        </Placemark>
        <Placemark>
            <name>Guest</name>
            <open>1</open>
            <TimeStamp>
                <when>2017-12-03T08:50:07Z</when>
            </TimeStamp>
            <Point>
                <coordinates>35.20953691,32.10445042,689.0</coordinates>
            </Point>
        </Placemark>
        <Placemark>
            <name>Cartiheal</name>
            <open>1</open>
            <TimeStamp>
                <when>2017-12-03T08:50:10Z</when>
            </TimeStamp>
            <Point>
                <coordinates>35.20937982,32.10434852,690.0</coordinates>
            </Point>
        </Placemark>
        <Placemark>
            <name>Ariel_University</name>
            <open>1</open>
            <TimeStamp>
                <when>2017-12-03T08:50:13Z</when>
            </TimeStamp>
            <Point>
                <coordinates>35.20922057,32.10422459,691.0</coordinates>
            </Point>
        </Placemark>
        <Placemark>
            <name>Ariel_University</name>
            <open>1</open>
            <TimeStamp>
                <when>2017-12-03T08:50:13Z</when>
            </TimeStamp>
            <Point>
                <coordinates>35.20922057,32.10422459,691.0</coordinates>
            </Point>
        </Placemark>
        <Placemark>
            <name>Ariel_University</name>
            <open>1</open>
            <TimeStamp>
                <when>2017-12-03T08:50:13Z</when>
            </TimeStamp>
            <Point>
                <coordinates>35.20922057,32.10422459,691.0</coordinates>
            </Point>
        </Placemark>
        <Placemark>
            <name>Ariel_University</name>
            <open>1</open>
            <TimeStamp>
                <when>2017-12-03T08:50:13Z</when>
            </TimeStamp>
            <Point>
                <coordinates>35.20922057,32.10422459,691.0</coordinates>
            </Point>
        </Placemark>
        <Placemark>
            <name>Ariel_University</name>
            <open>1</open>
            <TimeStamp>
                <when>2017-12-03T08:50:13Z</when>
            </TimeStamp>
            <Point>
                <coordinates>35.20922057,32.10422459,691.0</coordinates>
            </Point>
        </Placemark>
        <Placemark>
            <name>giftwizard</name>
            <open>1</open>
            <TimeStamp>
                <when>2017-12-03T08:50:13Z</when>
            </TimeStamp>
            <Point>
                <coordinates>35.20922057,32.10422459,691.0</coordinates>
            </Point>
        </Placemark>
        <Placemark>
            <name>Ariel_University</name>
            <open>1</open>
            <TimeStamp>
                <when>2017-12-03T08:50:13Z</when>
            </TimeStamp>
            <Point>
                <coordinates>35.20922057,32.10422459,691.0</coordinates>
            </Point>
        </Placemark>
        <Placemark>
            <name>HelpDesk</name>
            <open>1</open>
            <TimeStamp>
                <when>2017-12-03T08:50:13Z</when>
            </TimeStamp>
            <Point>
                <coordinates>35.20922057,32.10422459,691.0</coordinates>
            </Point>
        </Placemark>
        <Placemark>
            <name>Ariel_University</name>
            <open>1</open>
            <TimeStamp>
                <when>2017-12-03T08:50:13Z</when>
            </TimeStamp>
            <Point>
                <coordinates>35.20922057,32.10422459,691.0</coordinates>
            </Point>
        </Placemark>
        <Placemark>
            <name>Ariel_University</name>
            <open>1</open>
            <TimeStamp>
                <when>2017-12-03T08:50:13Z</when>
            </TimeStamp>
            <Point>
                <coordinates>35.20922057,32.10422459,691.0</coordinates>
            </Point>
        </Placemark>
        <Placemark>
            <name>giftwizard</name>
            <open>1</open>
            <TimeStamp>
                <when>2017-12-03T08:50:16Z</when>
            </TimeStamp>
            <Point>
                <coordinates>35.20905491,32.1040974,691.0</coordinates>
            </Point>
        </Placemark>
        <Placemark>
            <name>Ariel_University</name>
            <open>1</open>
            <TimeStamp>
                <when>2017-12-03T08:50:16Z</when>
            </TimeStamp>
            <Point>
                <coordinates>35.20905491,32.1040974,691.0</coordinates>
            </Point>
        </Placemark>
        <Placemark>
            <name>EVE</name>
            <open>1</open>
            <TimeStamp>
                <when>2017-12-03T08:50:16Z</when>
            </TimeStamp>
            <Point>
                <coordinates>35.20905491,32.1040974,691.0</coordinates>
            </Point>
        </Placemark>
        <Placemark>
            <name>Ariel_University</name>
            <open>1</open>
            <TimeStamp>
                <when>2017-12-03T08:50:19Z</when>
            </TimeStamp>
            <Point>
                <coordinates>35.20893712,32.10393148,691.0</coordinates>
            </Point>
        </Placemark>
        <Placemark>
            <name>Ariel_University</name>
            <open>1</open>
            <TimeStamp>
                <when>2017-12-03T08:50:19Z</when>
            </TimeStamp>
            <Point>
                <coordinates>35.20893712,32.10393148,691.0</coordinates>
            </Point>
        </Placemark>
        <Placemark>
            <name>Ariel_University</name>
            <open>1</open>
            <TimeStamp>
                <when>2017-12-03T08:50:19Z</when>
            </TimeStamp>
            <Point>
                <coordinates>35.20893712,32.10393148,691.0</coordinates>
            </Point>
        </Placemark>
        <Placemark>
            <name>outsense</name>
            <open>1</open>
            <TimeStamp>
                <when>2017-12-03T08:50:19Z</when>
            </TimeStamp>
            <Point>
                <coordinates>35.20893712,32.10393148,691.0</coordinates>
            </Point>
        </Placemark>
        <Placemark>
            <name>Ariel_University</name>
            <open>1</open>
            <TimeStamp>
                <when>2017-12-03T08:50:19Z</when>
            </TimeStamp>
            <Point>
                <coordinates>35.20893712,32.10393148,691.0</coordinates>
            </Point>
        </Placemark>
        <Placemark>
            <name></name>
            <open>1</open>
            <TimeStamp>
                <when>2017-12-03T08:50:19Z</when>
            </TimeStamp>
            <Point>
                <coordinates>35.20893712,32.10393148,691.0</coordinates>
            </Point>
        </Placemark>
        <Placemark>
            <name>Ariel_University</name>
            <open>1</open>
            <TimeStamp>
                <when>2017-12-03T08:50:19Z</when>
            </TimeStamp>
            <Point>
                <coordinates>35.20893712,32.10393148,691.0</coordinates>
            </Point>
        </Placemark>
        <Placemark>
            <name>Ariel_University</name>
            <open>1</open>
            <TimeStamp>
                <when>2017-12-03T08:50:23Z</when>
            </TimeStamp>
            <Point>
                <coordinates>35.20882467,32.1036515,689.0</coordinates>
            </Point>
        </Placemark>
        <Placemark>
            <name></name>
            <open>1</open>
            <TimeStamp>
                <when>2017-12-03T08:50:23Z</when>
            </TimeStamp>
            <Point>
                <coordinates>35.20882467,32.1036515,689.0</coordinates>
            </Point>
        </Placemark>
        <Placemark>
            <name>Guest</name>
            <open>1</open>
            <TimeStamp>
                <when>2017-12-03T08:50:23Z</when>
            </TimeStamp>
            <Point>
                <coordinates>35.20882467,32.1036515,689.0</coordinates>
            </Point>
        </Placemark>
        <Placemark>
            <name>Ariel_University</name>
            <open>1</open>
            <TimeStamp>
                <when>2017-12-03T08:50:23Z</when>
            </TimeStamp>
            <Point>
                <coordinates>35.20882467,32.1036515,689.0</coordinates>
            </Point>
        </Placemark>
        <Placemark>
            <name>shapedo</name>
            <open>1</open>
            <TimeStamp>
                <when>2017-12-03T08:50:23Z</when>
            </TimeStamp>
            <Point>
                <coordinates>35.20882467,32.1036515,689.0</coordinates>
            </Point>
        </Placemark>
        <Placemark>
            <name>DIRECT-61-HP DeskJet 3630 series</name>
            <open>1</open>
            <TimeStamp>
                <when>2017-12-03T08:50:23Z</when>
            </TimeStamp>
            <Point>
                <coordinates>35.20882467,32.1036515,689.0</coordinates>
            </Point>
        </Placemark>
        <Placemark>
            <name>Ariel_University</name>
            <open>1</open>
            <TimeStamp>
                <when>2017-12-03T08:50:25Z</when>
            </TimeStamp>
            <Point>
                <coordinates>35.20879798,32.10354981,689.0</coordinates>
            </Point>
        </Placemark>
        <Placemark>
            <name>Ariel_University</name>
            <open>1</open>
            <TimeStamp>
                <when>2017-12-03T08:50:25Z</when>
            </TimeStamp>
            <Point>
                <coordinates>35.20879798,32.10354981,689.0</coordinates>
            </Point>
        </Placemark>
        <Placemark>
            <name>Ariel_University</name>
            <open>1</open>
            <TimeStamp>
                <when>2017-12-03T08:50:25Z</when>
            </TimeStamp>
            <Point>
                <coordinates>35.20879798,32.10354981,689.0</coordinates>
            </Point>
        </Placemark>
        <Placemark>
            <name>Ariel_University</name>
            <open>1</open>
            <TimeStamp>
                <when>2017-12-03T08:50:25Z</when>
            </TimeStamp>
            <Point>
                <coordinates>35.20879798,32.10354981,689.0</coordinates>
            </Point>
        </Placemark>
        <Placemark>
            <name>TP-LINK_ADD150</name>
            <open>1</open>
            <TimeStamp>
                <when>2017-12-03T08:50:25Z</when>
            </TimeStamp>
            <Point>
                <coordinates>35.20879798,32.10354981,689.0</coordinates>
            </Point>
        </Placemark>
        <Placemark>
            <name>2.4V1</name>
            <open>1</open>
            <TimeStamp>
                <when>2017-12-03T08:50:25Z</when>
            </TimeStamp>
            <Point>
                <coordinates>35.20879798,32.10354981,689.0</coordinates>
            </Point>
        </Placemark>
        <Placemark>
            <name>Ariel_University</name>
            <open>1</open>
            <TimeStamp>
                <when>2017-12-03T08:50:28Z</when>
            </TimeStamp>
            <Point>
                <coordinates>35.20876448,32.10341775,690.0</coordinates>
            </Point>
        </Placemark>
        <Placemark>
            <name>Ariel_University</name>
            <open>1</open>
            <TimeStamp>
                <when>2017-12-03T08:50:28Z</when>
            </TimeStamp>
            <Point>
                <coordinates>35.20876448,32.10341775,690.0</coordinates>
            </Point>
        </Placemark>
        <Placemark>
            <name>Ariel_University</name>
            <open>1</open>
            <TimeStamp>
                <when>2017-12-03T08:50:31Z</when>
            </TimeStamp>
            <Point>
                <coordinates>35.20877211,32.103295,691.0</coordinates>
            </Point>
        </Placemark>
        <Placemark>
            <name>Ariel_University</name>
            <open>1</open>
            <TimeStamp>
                <when>2017-12-03T08:50:31Z</when>
            </TimeStamp>
            <Point>
                <coordinates>35.20877211,32.103295,691.0</coordinates>
            </Point>
        </Placemark>
        <Placemark>
            <name>Ariel_University</name>
            <open>1</open>
            <TimeStamp>
                <when>2017-12-03T08:50:31Z</when>
            </TimeStamp>
            <Point>
                <coordinates>35.20877211,32.103295,691.0</coordinates>
            </Point>
        </Placemark>
        <Placemark>
            <name>Ariel_University</name>
            <open>1</open>
            <TimeStamp>
                <when>2017-12-03T08:50:31Z</when>
            </TimeStamp>
            <Point>
                <coordinates>35.20877211,32.103295,691.0</coordinates>
            </Point>
        </Placemark>
        <Placemark>
            <name>Ariel_University</name>
            <open>1</open>
            <TimeStamp>
                <when>2017-12-03T08:50:35Z</when>
            </TimeStamp>
            <Point>
                <coordinates>35.20876341,32.1030599,693.0</coordinates>
            </Point>
        </Placemark>
        <Placemark>
            <name>Ariel_University</name>
            <open>1</open>
            <TimeStamp>
                <when>2017-12-03T08:50:35Z</when>
            </TimeStamp>
            <Point>
                <coordinates>35.20876341,32.1030599,693.0</coordinates>
            </Point>
        </Placemark>
        <Placemark>
            <name>Ariel_University</name>
            <open>1</open>
            <TimeStamp>
                <when>2017-12-03T08:50:35Z</when>
            </TimeStamp>
            <Point>
                <coordinates>35.20876341,32.1030599,693.0</coordinates>
            </Point>
        </Placemark>
        <Placemark>
            <name>Ariel_University</name>
            <open>1</open>
            <TimeStamp>
                <when>2017-12-03T08:50:35Z</when>
            </TimeStamp>
            <Point>
                <coordinates>35.20876341,32.1030599,693.0</coordinates>
            </Point>
        </Placemark>
        <Placemark>
            <name>Ariel_University</name>
            <open>1</open>
            <TimeStamp>
                <when>2017-12-03T08:50:35Z</when>
            </TimeStamp>
            <Point>
                <coordinates>35.20876341,32.1030599,693.0</coordinates>
            </Point>
        </Placemark>
        <Placemark>
            <name>Ariel_University</name>
            <open>1</open>
            <TimeStamp>
                <when>2017-12-03T08:50:35Z</when>
            </TimeStamp>
            <Point>
                <coordinates>35.20876341,32.1030599,693.0</coordinates>
            </Point>
        </Placemark>
        <Placemark>
            <name>Ariel_University</name>
            <open>1</open>
            <TimeStamp>
                <when>2017-12-03T08:50:35Z</when>
            </TimeStamp>
            <Point>
                <coordinates>35.20876341,32.1030599,693.0</coordinates>
            </Point>
        </Placemark>
        <Placemark>
            <name>Ariel_University</name>
            <open>1</open>
            <TimeStamp>
                <when>2017-12-03T08:50:35Z</when>
            </TimeStamp>
            <Point>
                <coordinates>35.20876341,32.1030599,693.0</coordinates>
            </Point>
        </Placemark>
        <Placemark>
            <name>Ariel_University</name>
            <open>1</open>
            <TimeStamp>
                <when>2017-12-03T08:50:35Z</when>
            </TimeStamp>
            <Point>
                <coordinates>35.20876341,32.1030599,693.0</coordinates>
            </Point>
        </Placemark>
        <Placemark>
            <name>giftwizard</name>
            <open>1</open>
            <TimeStamp>
                <when>2017-12-03T08:50:35Z</when>
            </TimeStamp>
            <Point>
                <coordinates>35.20876341,32.1030599,693.0</coordinates>
            </Point>
        </Placemark>
        <Placemark>
            <name>Ariel_University</name>
            <open>1</open>
            <TimeStamp>
                <when>2017-12-03T08:50:37Z</when>
            </TimeStamp>
            <Point>
                <coordinates>35.20879817,32.10292153,694.0</coordinates>
            </Point>
        </Placemark>
        <Placemark>
            <name>Ariel_University</name>
            <open>1</open>
            <TimeStamp>
                <when>2017-12-03T08:50:37Z</when>
            </TimeStamp>
            <Point>
                <coordinates>35.20879817,32.10292153,694.0</coordinates>
            </Point>
        </Placemark>
        <Placemark>
            <name>SGH-I337M</name>
            <open>1</open>
            <TimeStamp>
                <when>2017-12-03T08:50:37Z</when>
            </TimeStamp>
            <Point>
                <coordinates>35.20879817,32.10292153,694.0</coordinates>
            </Point>
        </Placemark>
        <Placemark>
            <name></name>
            <open>1</open>
            <TimeStamp>
                <when>2017-12-03T08:50:37Z</when>
            </TimeStamp>
            <Point>
                <coordinates>35.20879817,32.10292153,694.0</coordinates>
            </Point>
        </Placemark>
        <Placemark>
            <name>Ariel_University</name>
            <open>1</open>
            <TimeStamp>
                <when>2017-12-03T08:50:37Z</when>
            </TimeStamp>
            <Point>
                <coordinates>35.20879817,32.10292153,694.0</coordinates>
            </Point>
        </Placemark>
        <Placemark>
            <name>Ariel_University</name>
            <open>1</open>
            <TimeStamp>
                <when>2017-12-03T08:50:37Z</when>
            </TimeStamp>
            <Point>
                <coordinates>35.20879817,32.10292153,694.0</coordinates>
            </Point>
        </Placemark>
        <Placemark>
            <name>Ariel_University</name>
            <open>1</open>
            <TimeStamp>
                <when>2017-12-03T08:50:37Z</when>
            </TimeStamp>
            <Point>
                <coordinates>35.20879817,32.10292153,694.0</coordinates>
            </Point>
        </Placemark>
        <Placemark>
            <name>Ariel_University</name>
            <open>1</open>
            <TimeStamp>
                <when>2017-12-03T08:50:44Z</when>
            </TimeStamp>
            <Point>
                <coordinates>35.20892701,32.10242231,693.0</coordinates>
            </Point>
        </Placemark>
        <Placemark>
            <name>Ariel_University</name>
            <open>1</open>
            <TimeStamp>
                <when>2017-12-03T08:50:44Z</when>
            </TimeStamp>
            <Point>
                <coordinates>35.20892701,32.10242231,693.0</coordinates>
            </Point>
        </Placemark>
        <Placemark>
            <name>Ariel_University</name>
            <open>1</open>
            <TimeStamp>
                <when>2017-12-03T08:50:44Z</when>
            </TimeStamp>
            <Point>
                <coordinates>35.20892701,32.10242231,693.0</coordinates>
            </Point>
        </Placemark>
        <Placemark>
            <name>Ariel_University</name>
            <open>1</open>
            <TimeStamp>
                <when>2017-12-03T08:50:44Z</when>
            </TimeStamp>
            <Point>
                <coordinates>35.20892701,32.10242231,693.0</coordinates>
            </Point>
        </Placemark>
        <Placemark>
            <name>Bezeq Free</name>
            <open>1</open>
            <TimeStamp>
                <when>2017-12-03T08:50:44Z</when>
            </TimeStamp>
            <Point>
                <coordinates>35.20892701,32.10242231,693.0</coordinates>
            </Point>
        </Placemark>
        <Placemark>
            <name>Ariel_University</name>
            <open>1</open>
            <TimeStamp>
                <when>2017-12-03T08:50:47Z</when>
            </TimeStamp>
            <Point>
                <coordinates>35.20903931,32.10224576,693.0</coordinates>
            </Point>
        </Placemark>
        <Placemark>
            <name></name>
            <open>1</open>
            <TimeStamp>
                <when>2017-12-03T08:50:47Z</when>
            </TimeStamp>
            <Point>
                <coordinates>35.20903931,32.10224576,693.0</coordinates>
            </Point>
        </Placemark>
        <Placemark>
            <name>036518749</name>
            <open>1</open>
            <TimeStamp>
                <when>2017-12-03T08:50:47Z</when>
            </TimeStamp>
            <Point>
                <coordinates>35.20903931,32.10224576,693.0</coordinates>
            </Point>
        </Placemark>
        <Placemark>
            <name>Ariel_University</name>
            <open>1</open>
            <TimeStamp>
                <when>2017-12-03T08:50:47Z</when>
            </TimeStamp>
            <Point>
                <coordinates>35.20903931,32.10224576,693.0</coordinates>
            </Point>
        </Placemark>
        <Placemark>
            <name></name>
            <open>1</open>
            <TimeStamp>
                <when>2017-12-03T08:50:47Z</when>
            </TimeStamp>
            <Point>
                <coordinates>35.20903931,32.10224576,693.0</coordinates>
            </Point>
        </Placemark>
        <Placemark>
            <name>Ariel_University</name>
            <open>1</open>
            <TimeStamp>
                <when>2017-12-03T08:50:47Z</when>
            </TimeStamp>
            <Point>
                <coordinates>35.20903931,32.10224576,693.0</coordinates>
            </Point>
        </Placemark>
        <Placemark>
            <name>Ariel_University</name>
            <open>1</open>
            <TimeStamp>
                <when>2017-12-03T08:50:47Z</when>
            </TimeStamp>
            <Point>
                <coordinates>35.20903931,32.10224576,693.0</coordinates>
            </Point>
        </Placemark>
        <Placemark>
            <name>Ariel_University</name>
            <open>1</open>
            <TimeStamp>
                <when>2017-12-03T08:50:49Z</when>
            </TimeStamp>
            <Point>
                <coordinates>35.20915604,32.10216438,693.0</coordinates>
            </Point>
        </Placemark>
        <Placemark>
            <name>Ariel_University</name>
            <open>1</open>
            <TimeStamp>
                <when>2017-12-03T08:50:49Z</when>
            </TimeStamp>
            <Point>
                <coordinates>35.20915604,32.10216438,693.0</coordinates>
            </Point>
        </Placemark>
        <Placemark>
            <name>Ariel_University</name>
            <open>1</open>
            <TimeStamp>
                <when>2017-12-03T08:50:49Z</when>
            </TimeStamp>
            <Point>
                <coordinates>35.20915604,32.10216438,693.0</coordinates>
            </Point>
        </Placemark>
        <Placemark>
            <name></name>
            <open>1</open>
            <TimeStamp>
                <when>2017-12-03T08:50:49Z</when>
            </TimeStamp>
            <Point>
                <coordinates>35.20915604,32.10216438,693.0</coordinates>
            </Point>
        </Placemark>
        <Placemark>
            <name></name>
            <open>1</open>
            <TimeStamp>
                <when>2017-12-03T08:50:49Z</when>
            </TimeStamp>
            <Point>
                <coordinates>35.20915604,32.10216438,693.0</coordinates>
            </Point>
        </Placemark>
        <Placemark>
            <name></name>
            <open>1</open>
            <TimeStamp>
                <when>2017-12-03T08:50:49Z</when>
            </TimeStamp>
            <Point>
                <coordinates>35.20915604,32.10216438,693.0</coordinates>
            </Point>
        </Placemark>
        <Placemark>
            <name>Ariel_University</name>
            <open>1</open>
            <TimeStamp>
                <when>2017-12-03T08:50:49Z</when>
            </TimeStamp>
            <Point>
                <coordinates>35.20915604,32.10216438,693.0</coordinates>
            </Point>
        </Placemark>
        <Placemark>
            <name>Ariel_University</name>
            <open>1</open>
            <TimeStamp>
                <when>2017-12-03T08:50:52Z</when>
            </TimeStamp>
            <Point>
                <coordinates>35.20939241,32.10207647,691.0</coordinates>
            </Point>
        </Placemark>
        <Placemark>
            <name>Ariel_University</name>
            <open>1</open>
            <TimeStamp>
                <when>2017-12-03T08:50:52Z</when>
            </TimeStamp>
            <Point>
                <coordinates>35.20939241,32.10207647,691.0</coordinates>
            </Point>
        </Placemark>
        <Placemark>
            <name>Ariel_University</name>
            <open>1</open>
            <TimeStamp>
                <when>2017-12-03T08:50:52Z</when>
            </TimeStamp>
            <Point>
                <coordinates>35.20939241,32.10207647,691.0</coordinates>
            </Point>
        </Placemark>
        <Placemark>
            <name>Ariel_University</name>
            <open>1</open>
            <TimeStamp>
                <when>2017-12-03T08:50:52Z</when>
            </TimeStamp>
            <Point>
                <coordinates>35.20939241,32.10207647,691.0</coordinates>
            </Point>
        </Placemark>
        <Placemark>
            <name>Ariel_University</name>
            <open>1</open>
            <TimeStamp>
                <when>2017-12-03T08:50:52Z</when>
            </TimeStamp>
            <Point>
                <coordinates>35.20939241,32.10207647,691.0</coordinates>
            </Point>
        </Placemark>
        <Placemark>
            <name>Ariel_University</name>
            <open>1</open>
            <TimeStamp>
                <when>2017-12-03T08:50:55Z</when>
            </TimeStamp>
            <Point>
                <coordinates>35.20963208,32.10200665,691.0</coordinates>
            </Point>
        </Placemark>
        <Placemark>
            <name>Ariel_University</name>
            <open>1</open>
            <TimeStamp>
                <when>2017-12-03T08:50:55Z</when>
            </TimeStamp>
            <Point>
                <coordinates>35.20963208,32.10200665,691.0</coordinates>
            </Point>
        </Placemark>
        <Placemark>
            <name>Ariel_University</name>
            <open>1</open>
            <TimeStamp>
                <when>2017-12-03T08:50:55Z</when>
            </TimeStamp>
            <Point>
                <coordinates>35.20963208,32.10200665,691.0</coordinates>
            </Point>
        </Placemark>
        <Placemark>
            <name>DIRECT-71-HP DeskJet 3630 series</name>
            <open>1</open>
            <TimeStamp>
                <when>2017-12-03T08:50:55Z</when>
            </TimeStamp>
            <Point>
                <coordinates>35.20963208,32.10200665,691.0</coordinates>
            </Point>
        </Placemark>
        <Placemark>
            <name>Ariel_University</name>
            <open>1</open>
            <TimeStamp>
                <when>2017-12-03T08:50:55Z</when>
            </TimeStamp>
            <Point>
                <coordinates>35.20963208,32.10200665,691.0</coordinates>
            </Point>
        </Placemark>
        <Placemark>
            <name>yosh</name>
            <open>1</open>
            <TimeStamp>
                <when>2017-12-03T08:50:55Z</when>
            </TimeStamp>
            <Point>
                <coordinates>35.20963208,32.10200665,691.0</coordinates>
            </Point>
        </Placemark>
        <Placemark>
            <name>Ariel_University</name>
            <open>1</open>
            <TimeStamp>
                <when>2017-12-03T08:50:55Z</when>
            </TimeStamp>
            <Point>
                <coordinates>35.20963208,32.10200665,691.0</coordinates>
            </Point>
        </Placemark>
        <Placemark>
            <name>Ariel_University</name>
            <open>1</open>
            <TimeStamp>
                <when>2017-12-03T08:50:58Z</when>
            </TimeStamp>
            <Point>
                <coordinates>35.20987516,32.10204308,692.0</coordinates>
            </Point>
        </Placemark>
        <Placemark>
            <name>2.4V1</name>
            <open>1</open>
            <TimeStamp>
                <when>2017-12-03T08:50:58Z</when>
            </TimeStamp>
            <Point>
                <coordinates>35.20987516,32.10204308,692.0</coordinates>
            </Point>
        </Placemark>
        <Placemark>
            <name>Ariel_University</name>
            <open>1</open>
            <TimeStamp>
                <when>2017-12-03T08:50:58Z</when>
            </TimeStamp>
            <Point>
                <coordinates>35.20987516,32.10204308,692.0</coordinates>
            </Point>
        </Placemark>
        <Placemark>
            <name>Ariel_University</name>
            <open>1</open>
            <TimeStamp>
                <when>2017-12-03T08:50:58Z</when>
            </TimeStamp>
            <Point>
                <coordinates>35.20987516,32.10204308,692.0</coordinates>
            </Point>
        </Placemark>
        <Placemark>
            <name>Ariel_University</name>
            <open>1</open>
            <TimeStamp>
                <when>2017-12-03T08:50:58Z</when>
            </TimeStamp>
            <Point>
                <coordinates>35.20987516,32.10204308,692.0</coordinates>
            </Point>
        </Placemark>
        <Placemark>
            <name>Ariel_University</name>
            <open>1</open>
            <TimeStamp>
                <when>2017-12-03T08:51:01Z</when>
            </TimeStamp>
            <Point>
                <coordinates>35.21005769,32.10216602,692.0</coordinates>
            </Point>
        </Placemark>
        <Placemark>
            <name>Ariel_University</name>
            <open>1</open>
            <TimeStamp>
                <when>2017-12-03T08:51:01Z</when>
            </TimeStamp>
            <Point>
                <coordinates>35.21005769,32.10216602,692.0</coordinates>
            </Point>
        </Placemark>
        <Placemark>
            <name></name>
            <open>1</open>
            <TimeStamp>
                <when>2017-12-03T08:51:01Z</when>
            </TimeStamp>
            <Point>
                <coordinates>35.21005769,32.10216602,692.0</coordinates>
            </Point>
        </Placemark>
        <Placemark>
            <name>Ariel_University</name>
            <open>1</open>
            <TimeStamp>
                <when>2017-12-03T08:51:01Z</when>
            </TimeStamp>
            <Point>
                <coordinates>35.21005769,32.10216602,692.0</coordinates>
            </Point>
        </Placemark>
        <Placemark>
            <name>036518749</name>
            <open>1</open>
            <TimeStamp>
                <when>2017-12-03T08:51:01Z</when>
            </TimeStamp>
            <Point>
                <coordinates>35.21005769,32.10216602,692.0</coordinates>
            </Point>
        </Placemark>
        <Placemark>
            <name>Ariel_University</name>
            <open>1</open>
            <TimeStamp>
                <when>2017-12-03T08:51:01Z</when>
            </TimeStamp>
            <Point>
                <coordinates>35.21005769,32.10216602,692.0</coordinates>
            </Point>
        </Placemark>
        <Placemark>
            <name>Bezeq Free</name>
            <open>1</open>
            <TimeStamp>
                <when>2017-12-03T08:51:01Z</when>
            </TimeStamp>
            <Point>
                <coordinates>35.21005769,32.10216602,692.0</coordinates>
            </Point>
        </Placemark>
        <Placemark>
            <name>Ariel_University</name>
            <open>1</open>
            <TimeStamp>
                <when>2017-12-03T08:51:01Z</when>
            </TimeStamp>
            <Point>
                <coordinates>35.21005769,32.10216602,692.0</coordinates>
            </Point>
        </Placemark>
        <Placemark>
            <name>Ariel_University</name>
            <open>1</open>
            <TimeStamp>
                <when>2017-12-03T08:51:01Z</when>
            </TimeStamp>
            <Point>
                <coordinates>35.21005769,32.10216602,692.0</coordinates>
            </Point>
        </Placemark>
        <Placemark>
            <name></name>
            <open>1</open>
            <TimeStamp>
                <when>2017-12-03T08:51:01Z</when>
            </TimeStamp>
            <Point>
                <coordinates>35.21005769,32.10216602,692.0</coordinates>
            </Point>
        </Placemark>
        <Placemark>
            <name>Ariel_University</name>
            <open>1</open>
            <TimeStamp>
                <when>2017-12-03T08:51:04Z</when>
            </TimeStamp>
            <Point>
                <coordinates>35.2100967,32.10235966,691.0</coordinates>
            </Point>
        </Placemark>
        <Placemark>
            <name>Ariel_University</name>
            <open>1</open>
            <TimeStamp>
                <when>2017-12-03T08:51:04Z</when>
            </TimeStamp>
            <Point>
                <coordinates>35.2100967,32.10235966,691.0</coordinates>
            </Point>
        </Placemark>
        <Placemark>
            <name>lab_6.1.3</name>
            <open>1</open>
            <TimeStamp>
                <when>2017-12-03T08:51:08Z</when>
            </TimeStamp>
            <Point>
                <coordinates>35.20996826,32.10261584,689.0</coordinates>
            </Point>
        </Placemark>
        <Placemark>
            <name>Ariel_University</name>
            <open>1</open>
            <TimeStamp>
                <when>2017-12-03T08:51:08Z</when>
            </TimeStamp>
            <Point>
                <coordinates>35.20996826,32.10261584,689.0</coordinates>
            </Point>
        </Placemark>
        <Placemark>
            <name>Ariel_University</name>
            <open>1</open>
            <TimeStamp>
                <when>2017-12-03T08:51:08Z</when>
            </TimeStamp>
            <Point>
                <coordinates>35.20996826,32.10261584,689.0</coordinates>
            </Point>
        </Placemark>
        <Placemark>
            <name>Ariel_University</name>
            <open>1</open>
            <TimeStamp>
                <when>2017-12-03T08:51:08Z</when>
            </TimeStamp>
            <Point>
                <coordinates>35.20996826,32.10261584,689.0</coordinates>
            </Point>
        </Placemark>
        <Placemark>
            <name>Ariel_University</name>
            <open>1</open>
            <TimeStamp>
                <when>2017-12-03T08:51:08Z</when>
            </TimeStamp>
            <Point>
                <coordinates>35.20996826,32.10261584,689.0</coordinates>
            </Point>
        </Placemark>
        <Placemark>
            <name>KCG-ADSL</name>
            <open>1</open>
            <TimeStamp>
                <when>2017-12-03T08:51:11Z</when>
            </TimeStamp>
            <Point>
                <coordinates>35.20986616,32.10284154,688.0</coordinates>
            </Point>
        </Placemark>
        <Placemark>
            <name>Ariel_University</name>
            <open>1</open>
            <TimeStamp>
                <when>2017-12-03T08:51:11Z</when>
            </TimeStamp>
            <Point>
                <coordinates>35.20986616,32.10284154,688.0</coordinates>
            </Point>
        </Placemark>
        <Placemark>
            <name>Ariel_University</name>
            <open>1</open>
            <TimeStamp>
                <when>2017-12-03T08:51:11Z</when>
            </TimeStamp>
            <Point>
                <coordinates>35.20986616,32.10284154,688.0</coordinates>
            </Point>
        </Placemark>
        <Placemark>
            <name>Ariel_University</name>
            <open>1</open>
            <TimeStamp>
                <when>2017-12-03T08:51:11Z</when>
            </TimeStamp>
            <Point>
                <coordinates>35.20986616,32.10284154,688.0</coordinates>
            </Point>
        </Placemark>
        <Placemark>
            <name>Ariel_University</name>
            <open>1</open>
            <TimeStamp>
                <when>2017-12-03T08:51:24Z</when>
            </TimeStamp>
            <Point>
                <coordinates>35.20996453,32.10362711,692.0</coordinates>
            </Point>
        </Placemark>
        <Placemark>
            <name>Ariel_University</name>
            <open>1</open>
            <TimeStamp>
                <when>2017-12-03T08:51:24Z</when>
            </TimeStamp>
            <Point>
                <coordinates>35.20996453,32.10362711,692.0</coordinates>
            </Point>
        </Placemark>
        <Placemark>
            <name>Ariel_University</name>
            <open>1</open>
            <TimeStamp>
                <when>2017-12-03T08:51:24Z</when>
            </TimeStamp>
            <Point>
                <coordinates>35.20996453,32.10362711,692.0</coordinates>
            </Point>
        </Placemark>
        <Placemark>
            <name>DIRECT-51-HP DeskJet 3630 series</name>
            <open>1</open>
            <TimeStamp>
                <when>2017-12-03T08:51:24Z</when>
            </TimeStamp>
            <Point>
                <coordinates>35.20996453,32.10362711,692.0</coordinates>
            </Point>
        </Placemark>
        <Placemark>
            <name>DIRECT-3B-HP DeskJet 3630 series</name>
            <open>1</open>
            <TimeStamp>
                <when>2017-12-03T08:51:24Z</when>
            </TimeStamp>
            <Point>
                <coordinates>35.20996453,32.10362711,692.0</coordinates>
            </Point>
        </Placemark>
        <Placemark>
            <name>Ariel_University</name>
            <open>1</open>
            <TimeStamp>
                <when>2017-12-03T08:51:24Z</when>
            </TimeStamp>
            <Point>
                <coordinates>35.20996453,32.10362711,692.0</coordinates>
            </Point>
        </Placemark>
        <Placemark>
            <name>lab_6.1.3</name>
            <open>1</open>
            <TimeStamp>
                <when>2017-12-03T08:51:24Z</when>
            </TimeStamp>
            <Point>
                <coordinates>35.20996453,32.10362711,692.0</coordinates>
            </Point>
        </Placemark>
        <Placemark>
            <name>Ariel_University</name>
            <open>1</open>
            <TimeStamp>
                <when>2017-12-03T08:51:24Z</when>
            </TimeStamp>
            <Point>
                <coordinates>35.20996453,32.10362711,692.0</coordinates>
            </Point>
        </Placemark>
        <Placemark>
            <name>yosh</name>
            <open>1</open>
            <TimeStamp>
                <when>2017-12-03T08:51:24Z</when>
            </TimeStamp>
            <Point>
                <coordinates>35.20996453,32.10362711,692.0</coordinates>
            </Point>
        </Placemark>
        <Placemark>
            <name>Ariel_University</name>
            <open>1</open>
            <TimeStamp>
                <when>2017-12-03T08:51:24Z</when>
            </TimeStamp>
            <Point>
                <coordinates>35.20996453,32.10362711,692.0</coordinates>
            </Point>
        </Placemark>
        <Placemark>
            <name>Ariel_University</name>
            <open>1</open>
            <TimeStamp>
                <when>2017-12-03T08:51:34Z</when>
            </TimeStamp>
            <Point>
                <coordinates>35.21033886,32.10387162,695.0</coordinates>
            </Point>
        </Placemark>
        <Placemark>
            <name>Ariel_University</name>
            <open>1</open>
            <TimeStamp>
                <when>2017-12-03T08:51:34Z</when>
            </TimeStamp>
            <Point>
                <coordinates>35.21033886,32.10387162,695.0</coordinates>
            </Point>
        </Placemark>
        <Placemark>
            <name>KCG-ADSL</name>
            <open>1</open>
            <TimeStamp>
                <when>2017-12-03T08:51:34Z</when>
            </TimeStamp>
            <Point>
                <coordinates>35.21033886,32.10387162,695.0</coordinates>
            </Point>
        </Placemark>
        <Placemark>
            <name>Ariel_University</name>
            <open>1</open>
            <TimeStamp>
                <when>2017-12-03T08:51:39Z</when>
            </TimeStamp>
            <Point>
                <coordinates>35.21063188,32.10403005,696.0</coordinates>
            </Point>
        </Placemark>
        <Placemark>
            <name>Ariel_University</name>
            <open>1</open>
            <TimeStamp>
                <when>2017-12-03T08:51:42Z</when>
            </TimeStamp>
            <Point>
                <coordinates>35.21083187,32.1041076,696.0</coordinates>
            </Point>
        </Placemark>
        <Placemark>
            <name>Ariel_University</name>
            <open>1</open>
            <TimeStamp>
                <when>2017-12-03T08:51:42Z</when>
            </TimeStamp>
            <Point>
                <coordinates>35.21083187,32.1041076,696.0</coordinates>
            </Point>
        </Placemark>
        <Placemark>
            <name>Ariel_University</name>
            <open>1</open>
            <TimeStamp>
                <when>2017-12-03T08:51:42Z</when>
            </TimeStamp>
            <Point>
                <coordinates>35.21083187,32.1041076,696.0</coordinates>
            </Point>
        </Placemark>
        <Placemark>
            <name>Ariel_University</name>
            <open>1</open>
            <TimeStamp>
                <when>2017-12-03T08:51:45Z</when>
            </TimeStamp>
            <Point>
                <coordinates>35.21102378,32.10415616,696.0</coordinates>
            </Point>
        </Placemark>
        <Placemark>
            <name>Ariel_University</name>
            <open>1</open>
            <TimeStamp>
                <when>2017-12-03T08:51:45Z</when>
            </TimeStamp>
            <Point>
                <coordinates>35.21102378,32.10415616,696.0</coordinates>
            </Point>
        </Placemark>
        <Placemark>
            <name>Ariel_University</name>
            <open>1</open>
            <TimeStamp>
                <when>2017-12-03T08:51:45Z</when>
            </TimeStamp>
            <Point>
                <coordinates>35.21102378,32.10415616,696.0</coordinates>
            </Point>
        </Placemark>
        <Placemark>
            <name>Ariel_University</name>
            <open>1</open>
            <TimeStamp>
                <when>2017-12-03T08:51:45Z</when>
            </TimeStamp>
            <Point>
                <coordinates>35.21102378,32.10415616,696.0</coordinates>
            </Point>
        </Placemark>
        <Placemark>
            <name>Ariel_University</name>
            <open>1</open>
            <TimeStamp>
                <when>2017-12-03T08:51:45Z</when>
            </TimeStamp>
            <Point>
                <coordinates>35.21102378,32.10415616,696.0</coordinates>
            </Point>
        </Placemark>
        <Placemark>
            <name>lab_6.1.3</name>
            <open>1</open>
            <TimeStamp>
                <when>2017-12-03T08:51:45Z</when>
            </TimeStamp>
            <Point>
                <coordinates>35.21102378,32.10415616,696.0</coordinates>
            </Point>
        </Placemark>
        <Placemark>
            <name>Ariel_University</name>
            <open>1</open>
            <TimeStamp>
                <when>2017-12-03T08:51:45Z</when>
            </TimeStamp>
            <Point>
                <coordinates>35.21102378,32.10415616,696.0</coordinates>
            </Point>
        </Placemark>
        <Placemark>
            <name>Ariel_University</name>
            <open>1</open>
            <TimeStamp>
                <when>2017-12-03T08:51:45Z</when>
            </TimeStamp>
            <Point>
                <coordinates>35.21102378,32.10415616,696.0</coordinates>
            </Point>
        </Placemark>
        <Placemark>
            <name>Ariel_University</name>
            <open>1</open>
            <TimeStamp>
                <when>2017-12-03T08:51:45Z</when>
            </TimeStamp>
            <Point>
                <coordinates>35.21102378,32.10415616,696.0</coordinates>
            </Point>
        </Placemark>
        <Placemark>
            <name>Ariel_University</name>
            <open>1</open>
            <TimeStamp>
                <when>2017-12-03T08:51:45Z</when>
            </TimeStamp>
            <Point>
                <coordinates>35.21102378,32.10415616,696.0</coordinates>
            </Point>
        </Placemark>
        <Placemark>
            <name>Ariel_University</name>
            <open>1</open>
            <TimeStamp>
                <when>2017-12-03T08:51:48Z</when>
            </TimeStamp>
            <Point>
                <coordinates>35.21116992,32.10419206,694.0</coordinates>
            </Point>
        </Placemark>
        <Placemark>
            <name>Ariel_University</name>
            <open>1</open>
            <TimeStamp>
                <when>2017-12-03T08:51:48Z</when>
            </TimeStamp>
            <Point>
                <coordinates>35.21116992,32.10419206,694.0</coordinates>
            </Point>
        </Placemark>
        <Placemark>
            <name>yosh</name>
            <open>1</open>
            <TimeStamp>
                <when>2017-12-03T08:51:48Z</when>
            </TimeStamp>
            <Point>
                <coordinates>35.21116992,32.10419206,694.0</coordinates>
            </Point>
        </Placemark>
        <Placemark>
            <name>Ariel_University</name>
            <open>1</open>
            <TimeStamp>
                <when>2017-12-03T08:51:51Z</when>
            </TimeStamp>
            <Point>
                <coordinates>35.21132022,32.10423222,692.0</coordinates>
            </Point>
        </Placemark>
        <Placemark>
            <name>Ariel_University</name>
            <open>1</open>
            <TimeStamp>
                <when>2017-12-03T08:51:51Z</when>
            </TimeStamp>
            <Point>
                <coordinates>35.21132022,32.10423222,692.0</coordinates>
            </Point>
        </Placemark>
        <Placemark>
            <name>Ariel_University</name>
            <open>1</open>
            <TimeStamp>
                <when>2017-12-03T08:51:54Z</when>
            </TimeStamp>
            <Point>
                <coordinates>35.2114556,32.10430308,693.0</coordinates>
            </Point>
        </Placemark>
        <Placemark>
            <name>Ariel_University</name>
            <open>1</open>
            <TimeStamp>
                <when>2017-12-03T08:51:57Z</when>
            </TimeStamp>
            <Point>
                <coordinates>35.21152549,32.10442508,692.0</coordinates>
            </Point>
        </Placemark>
    </Document>
</kml>
