<?xml version="1.0" encoding="UTF-8" standalone="yes"?>
<kml xmlns="http://www.opengis.net/kml/2.2" xmlns:gx="http://www.google.com/kml/ext/2.2" xmlns:atom="http://www.w3.org/2005/Atom" xmlns:xal="urn:oasis:names:tc:ciq:xsdschema:xAL:2.0">
    <Document>
        <Placemark>
            <name>afikim-wifi</name>
            <open>1</open>
            <TimeStamp>
                <when>2017-12-03T08:37:10Z</when>
            </TimeStamp>
            <Point>
                <coordinates>35.20726399020641,32.10253330333696,699.287760530489</coordinates>
            </Point>
        </Placemark>
        <Placemark>
            <name>Moria</name>
            <open>1</open>
            <TimeStamp>
                <when>2017-12-03T08:37:10Z</when>
            </TimeStamp>
            <Point>
                <coordinates>35.20726399020641,32.10253330333696,699.287760530489</coordinates>
            </Point>
        </Placemark>
        <Placemark>
            <name>AUC_54_R</name>
            <open>1</open>
            <TimeStamp>
                <when>2017-12-03T08:37:10Z</when>
            </TimeStamp>
            <Point>
                <coordinates>35.20726399020641,32.10253330333696,699.287760530489</coordinates>
            </Point>
        </Placemark>
        <Placemark>
            <name>AUC_51_3</name>
            <open>1</open>
            <TimeStamp>
                <when>2017-12-03T08:37:10Z</when>
            </TimeStamp>
            <Point>
                <coordinates>35.20726399020641,32.10253330333696,699.287760530489</coordinates>
            </Point>
        </Placemark>
        <Placemark>
            <name>surikat</name>
            <open>1</open>
            <TimeStamp>
                <when>2017-12-03T08:37:10Z</when>
            </TimeStamp>
            <Point>
                <coordinates>35.20726399020641,32.10253330333696,699.287760530489</coordinates>
            </Point>
        </Placemark>
        <Placemark>
            <name>Ariel_University</name>
            <open>1</open>
            <TimeStamp>
                <when>2017-12-03T08:37:10Z</when>
            </TimeStamp>
            <Point>
                <coordinates>35.20726399020641,32.10253330333696,699.287760530489</coordinates>
            </Point>
        </Placemark>
        <Placemark>
            <name>afikim-wifi</name>
            <open>1</open>
            <TimeStamp>
                <when>2017-12-03T08:37:10Z</when>
            </TimeStamp>
            <Point>
                <coordinates>35.20726399020641,32.10253330333696,699.287760530489</coordinates>
            </Point>
        </Placemark>
        <Placemark>
            <name>afikim-wifi</name>
            <open>1</open>
            <TimeStamp>
                <when>2017-12-03T08:37:13Z</when>
            </TimeStamp>
            <Point>
                <coordinates>35.20734570155965,32.102528187003614,700.1622738859833</coordinates>
            </Point>
        </Placemark>
        <Placemark>
            <name>Moria</name>
            <open>1</open>
            <TimeStamp>
                <when>2017-12-03T08:37:13Z</when>
            </TimeStamp>
            <Point>
                <coordinates>35.20734570155965,32.102528187003614,700.1622738859833</coordinates>
            </Point>
        </Placemark>
        <Placemark>
            <name>Lidor a</name>
            <open>1</open>
            <TimeStamp>
                <when>2017-12-03T08:37:13Z</when>
            </TimeStamp>
            <Point>
                <coordinates>35.20734570155965,32.102528187003614,700.1622738859833</coordinates>
            </Point>
        </Placemark>
        <Placemark>
            <name>tanya</name>
            <open>1</open>
            <TimeStamp>
                <when>2017-12-03T08:37:13Z</when>
            </TimeStamp>
            <Point>
                <coordinates>35.20734570155965,32.102528187003614,700.1622738859833</coordinates>
            </Point>
        </Placemark>
        <Placemark>
            <name>Ariel_University</name>
            <open>1</open>
            <TimeStamp>
                <when>2017-12-03T08:37:13Z</when>
            </TimeStamp>
            <Point>
                <coordinates>35.20734570155965,32.102528187003614,700.1622738859833</coordinates>
            </Point>
        </Placemark>
        <Placemark>
            <name>Hagar</name>
            <open>1</open>
            <TimeStamp>
                <when>2017-12-03T08:37:13Z</when>
            </TimeStamp>
            <Point>
                <coordinates>35.20734570155965,32.102528187003614,700.1622738859833</coordinates>
            </Point>
        </Placemark>
        <Placemark>
            <name>Ariel_University</name>
            <open>1</open>
            <TimeStamp>
                <when>2017-12-03T08:37:13Z</when>
            </TimeStamp>
            <Point>
                <coordinates>35.20734570155965,32.102528187003614,700.1622738859833</coordinates>
            </Point>
        </Placemark>
        <Placemark>
            <name>Ariel_University</name>
            <open>1</open>
            <TimeStamp>
                <when>2017-12-03T08:37:13Z</when>
            </TimeStamp>
            <Point>
                <coordinates>35.20734570155965,32.102528187003614,700.1622738859833</coordinates>
            </Point>
        </Placemark>
        <Placemark>
            <name>Ariel_University</name>
            <open>1</open>
            <TimeStamp>
                <when>2017-12-03T08:37:13Z</when>
            </TimeStamp>
            <Point>
                <coordinates>35.20734570155965,32.102528187003614,700.1622738859833</coordinates>
            </Point>
        </Placemark>
        <Placemark>
            <name>Cellcom-WiFi_0123</name>
            <open>1</open>
            <TimeStamp>
                <when>2017-12-03T08:37:13Z</when>
            </TimeStamp>
            <Point>
                <coordinates>35.20734570155965,32.102528187003614,700.1622738859833</coordinates>
            </Point>
        </Placemark>
        <Placemark>
            <name>Ariel_University</name>
            <open>1</open>
            <TimeStamp>
                <when>2017-12-03T08:37:15Z</when>
            </TimeStamp>
            <Point>
                <coordinates>35.20734901460898,32.10251814263996,698.9056862429085</coordinates>
            </Point>
        </Placemark>
        <Placemark>
            <name>Sveta</name>
            <open>1</open>
            <TimeStamp>
                <when>2017-12-03T08:37:15Z</when>
            </TimeStamp>
            <Point>
                <coordinates>35.20734901460898,32.10251814263996,698.9056862429085</coordinates>
            </Point>
        </Placemark>
        <Placemark>
            <name>ear</name>
            <open>1</open>
            <TimeStamp>
                <when>2017-12-03T08:37:15Z</when>
            </TimeStamp>
            <Point>
                <coordinates>35.20734901460898,32.10251814263996,698.9056862429085</coordinates>
            </Point>
        </Placemark>
        <Placemark>
            <name>LARISA</name>
            <open>1</open>
            <TimeStamp>
                <when>2017-12-03T08:37:15Z</when>
            </TimeStamp>
            <Point>
                <coordinates>35.20734901460898,32.10251814263996,698.9056862429085</coordinates>
            </Point>
        </Placemark>
        <Placemark>
            <name>Knoch</name>
            <open>1</open>
            <TimeStamp>
                <when>2017-12-03T08:37:15Z</when>
            </TimeStamp>
            <Point>
                <coordinates>35.20734901460898,32.10251814263996,698.9056862429085</coordinates>
            </Point>
        </Placemark>
        <Placemark>
            <name>netbox-550b</name>
            <open>1</open>
            <TimeStamp>
                <when>2017-12-03T08:37:15Z</when>
            </TimeStamp>
            <Point>
                <coordinates>35.20734901460898,32.10251814263996,698.9056862429085</coordinates>
            </Point>
        </Placemark>
        <Placemark>
            <name>Home</name>
            <open>1</open>
            <TimeStamp>
                <when>2017-12-03T08:37:15Z</when>
            </TimeStamp>
            <Point>
                <coordinates>35.20734901460898,32.10251814263996,698.9056862429085</coordinates>
            </Point>
        </Placemark>
        <Placemark>
            <name></name>
            <open>1</open>
            <TimeStamp>
                <when>2017-12-03T08:37:15Z</when>
            </TimeStamp>
            <Point>
                <coordinates>35.20734901460898,32.10251814263996,698.9056862429085</coordinates>
            </Point>
        </Placemark>
        <Placemark>
            <name>Ariel_University</name>
            <open>1</open>
            <TimeStamp>
                <when>2017-12-03T08:37:15Z</when>
            </TimeStamp>
            <Point>
                <coordinates>35.20734901460898,32.10251814263996,698.9056862429085</coordinates>
            </Point>
        </Placemark>
        <Placemark>
            <name>Ariel_University</name>
            <open>1</open>
            <TimeStamp>
                <when>2017-12-03T08:37:15Z</when>
            </TimeStamp>
            <Point>
                <coordinates>35.20734901460898,32.10251814263996,698.9056862429085</coordinates>
            </Point>
        </Placemark>
        <Placemark>
            <name>Ariel_University</name>
            <open>1</open>
            <TimeStamp>
                <when>2017-12-03T08:37:18Z</when>
            </TimeStamp>
            <Point>
                <coordinates>35.207339181669674,32.10251581558651,697.993173771496</coordinates>
            </Point>
        </Placemark>
        <Placemark>
            <name>BEZEQINT-8831</name>
            <open>1</open>
            <TimeStamp>
                <when>2017-12-03T08:37:18Z</when>
            </TimeStamp>
            <Point>
                <coordinates>35.207339181669674,32.10251581558651,697.993173771496</coordinates>
            </Point>
        </Placemark>
        <Placemark>
            <name>Ariel_University</name>
            <open>1</open>
            <TimeStamp>
                <when>2017-12-03T08:37:18Z</when>
            </TimeStamp>
            <Point>
                <coordinates>35.207339181669674,32.10251581558651,697.993173771496</coordinates>
            </Point>
        </Placemark>
        <Placemark>
            <name></name>
            <open>1</open>
            <TimeStamp>
                <when>2017-12-03T08:37:18Z</when>
            </TimeStamp>
            <Point>
                <coordinates>35.207339181669674,32.10251581558651,697.993173771496</coordinates>
            </Point>
        </Placemark>
        <Placemark>
            <name>Ariel_University</name>
            <open>1</open>
            <TimeStamp>
                <when>2017-12-03T08:37:21Z</when>
            </TimeStamp>
            <Point>
                <coordinates>35.207318657702054,32.102520962117886,696.8261810224474</coordinates>
            </Point>
        </Placemark>
        <Placemark>
            <name></name>
            <open>1</open>
            <TimeStamp>
                <when>2017-12-03T08:37:21Z</when>
            </TimeStamp>
            <Point>
                <coordinates>35.207318657702054,32.102520962117886,696.8261810224474</coordinates>
            </Point>
        </Placemark>
        <Placemark>
            <name></name>
            <open>1</open>
            <TimeStamp>
                <when>2017-12-03T08:37:21Z</when>
            </TimeStamp>
            <Point>
                <coordinates>35.207318657702054,32.102520962117886,696.8261810224474</coordinates>
            </Point>
        </Placemark>
        <Placemark>
            <name>Ariel_University</name>
            <open>1</open>
            <TimeStamp>
                <when>2017-12-03T08:37:24Z</when>
            </TimeStamp>
            <Point>
                <coordinates>35.2073387273908,32.10251743683182,695.5775665899107</coordinates>
            </Point>
        </Placemark>
        <Placemark>
            <name>victoria</name>
            <open>1</open>
            <TimeStamp>
                <when>2017-12-03T08:37:24Z</when>
            </TimeStamp>
            <Point>
                <coordinates>35.2073387273908,32.10251743683182,695.5775665899107</coordinates>
            </Point>
        </Placemark>
        <Placemark>
            <name>BezeqFree</name>
            <open>1</open>
            <TimeStamp>
                <when>2017-12-03T08:37:27Z</when>
            </TimeStamp>
            <Point>
                <coordinates>35.20743113335047,32.102458386443125,694.8881937656644</coordinates>
            </Point>
        </Placemark>
        <Placemark>
            <name>Ariel_University</name>
            <open>1</open>
            <TimeStamp>
                <when>2017-12-03T08:37:27Z</when>
            </TimeStamp>
            <Point>
                <coordinates>35.20743113335047,32.102458386443125,694.8881937656644</coordinates>
            </Point>
        </Placemark>
        <Placemark>
            <name>Mama</name>
            <open>1</open>
            <TimeStamp>
                <when>2017-12-03T08:37:27Z</when>
            </TimeStamp>
            <Point>
                <coordinates>35.20743113335047,32.102458386443125,694.8881937656644</coordinates>
            </Point>
        </Placemark>
        <Placemark>
            <name>SGH-I337M</name>
            <open>1</open>
            <TimeStamp>
                <when>2017-12-03T08:37:27Z</when>
            </TimeStamp>
            <Point>
                <coordinates>35.20743113335047,32.102458386443125,694.8881937656644</coordinates>
            </Point>
        </Placemark>
        <Placemark>
            <name>Hoom_2.4</name>
            <open>1</open>
            <TimeStamp>
                <when>2017-12-03T08:37:30Z</when>
            </TimeStamp>
            <Point>
                <coordinates>35.207563401001366,32.10246378160256,694.129943277534</coordinates>
            </Point>
        </Placemark>
        <Placemark>
            <name>Ariel_University</name>
            <open>1</open>
            <TimeStamp>
                <when>2017-12-03T08:37:33Z</when>
            </TimeStamp>
            <Point>
                <coordinates>35.20759021123835,32.10258798763252,693.1085203108703</coordinates>
            </Point>
        </Placemark>
        <Placemark>
            <name></name>
            <open>1</open>
            <TimeStamp>
                <when>2017-12-03T08:37:33Z</when>
            </TimeStamp>
            <Point>
                <coordinates>35.20759021123835,32.10258798763252,693.1085203108703</coordinates>
            </Point>
        </Placemark>
        <Placemark>
            <name>Ariel_University</name>
            <open>1</open>
            <TimeStamp>
                <when>2017-12-03T08:37:33Z</when>
            </TimeStamp>
            <Point>
                <coordinates>35.20759021123835,32.10258798763252,693.1085203108703</coordinates>
            </Point>
        </Placemark>
        <Placemark>
            <name>Ariel_University</name>
            <open>1</open>
            <TimeStamp>
                <when>2017-12-03T08:37:33Z</when>
            </TimeStamp>
            <Point>
                <coordinates>35.20759021123835,32.10258798763252,693.1085203108703</coordinates>
            </Point>
        </Placemark>
        <Placemark>
            <name>__ery</name>
            <open>1</open>
            <TimeStamp>
                <when>2017-12-03T08:37:33Z</when>
            </TimeStamp>
            <Point>
                <coordinates>35.20759021123835,32.10258798763252,693.1085203108703</coordinates>
            </Point>
        </Placemark>
        <Placemark>
            <name>Ariel_University</name>
            <open>1</open>
            <TimeStamp>
                <when>2017-12-03T08:37:36Z</when>
            </TimeStamp>
            <Point>
                <coordinates>35.20757686137406,32.10263460161589,692.0341048029707</coordinates>
            </Point>
        </Placemark>
        <Placemark>
            <name>bezek freeee</name>
            <open>1</open>
            <TimeStamp>
                <when>2017-12-03T08:37:36Z</when>
            </TimeStamp>
            <Point>
                <coordinates>35.20757686137406,32.10263460161589,692.0341048029707</coordinates>
            </Point>
        </Placemark>
        <Placemark>
            <name>vladimir</name>
            <open>1</open>
            <TimeStamp>
                <when>2017-12-03T08:37:36Z</when>
            </TimeStamp>
            <Point>
                <coordinates>35.20757686137406,32.10263460161589,692.0341048029707</coordinates>
            </Point>
        </Placemark>
        <Placemark>
            <name>Ariel_University</name>
            <open>1</open>
            <TimeStamp>
                <when>2017-12-03T08:37:39Z</when>
            </TimeStamp>
            <Point>
                <coordinates>35.207577232080226,32.10273178324407,691.339489932552</coordinates>
            </Point>
        </Placemark>
        <Placemark>
            <name>Ariel_University</name>
            <open>1</open>
            <TimeStamp>
                <when>2017-12-03T08:37:39Z</when>
            </TimeStamp>
            <Point>
                <coordinates>35.207577232080226,32.10273178324407,691.339489932552</coordinates>
            </Point>
        </Placemark>
        <Placemark>
            <name>HOTFiber-3C40</name>
            <open>1</open>
            <TimeStamp>
                <when>2017-12-03T08:37:42Z</when>
            </TimeStamp>
            <Point>
                <coordinates>35.2076291986019,32.102861507686676,691.1036071541976</coordinates>
            </Point>
        </Placemark>
        <Placemark>
            <name>Ariel_University</name>
            <open>1</open>
            <TimeStamp>
                <when>2017-12-03T08:37:42Z</when>
            </TimeStamp>
            <Point>
                <coordinates>35.2076291986019,32.102861507686676,691.1036071541976</coordinates>
            </Point>
        </Placemark>
        <Placemark>
            <name>Biren2809</name>
            <open>1</open>
            <TimeStamp>
                <when>2017-12-03T08:37:42Z</when>
            </TimeStamp>
            <Point>
                <coordinates>35.2076291986019,32.102861507686676,691.1036071541976</coordinates>
            </Point>
        </Placemark>
        <Placemark>
            <name>Ariel_University</name>
            <open>1</open>
            <TimeStamp>
                <when>2017-12-03T08:37:45Z</when>
            </TimeStamp>
            <Point>
                <coordinates>35.20769754582129,32.10297429619621,690.9460551220589</coordinates>
            </Point>
        </Placemark>
        <Placemark>
            <name>SGH-I337M</name>
            <open>1</open>
            <TimeStamp>
                <when>2017-12-03T08:37:45Z</when>
            </TimeStamp>
            <Point>
                <coordinates>35.20769754582129,32.10297429619621,690.9460551220589</coordinates>
            </Point>
        </Placemark>
        <Placemark>
            <name>Ariel_University</name>
            <open>1</open>
            <TimeStamp>
                <when>2017-12-03T08:37:45Z</when>
            </TimeStamp>
            <Point>
                <coordinates>35.20769754582129,32.10297429619621,690.9460551220589</coordinates>
            </Point>
        </Placemark>
        <Placemark>
            <name></name>
            <open>1</open>
            <TimeStamp>
                <when>2017-12-03T08:37:45Z</when>
            </TimeStamp>
            <Point>
                <coordinates>35.20769754582129,32.10297429619621,690.9460551220589</coordinates>
            </Point>
        </Placemark>
        <Placemark>
            <name>Ariel_University</name>
            <open>1</open>
            <TimeStamp>
                <when>2017-12-03T08:37:45Z</when>
            </TimeStamp>
            <Point>
                <coordinates>35.20769754582129,32.10297429619621,690.9460551220589</coordinates>
            </Point>
        </Placemark>
        <Placemark>
            <name>Ariel_University</name>
            <open>1</open>
            <TimeStamp>
                <when>2017-12-03T08:37:49Z</when>
            </TimeStamp>
            <Point>
                <coordinates>35.20773997080285,32.10309345225589,690.9058112860603</coordinates>
            </Point>
        </Placemark>
        <Placemark>
            <name>Ariel_University</name>
            <open>1</open>
            <TimeStamp>
                <when>2017-12-03T08:37:49Z</when>
            </TimeStamp>
            <Point>
                <coordinates>35.20773997080285,32.10309345225589,690.9058112860603</coordinates>
            </Point>
        </Placemark>
        <Placemark>
            <name>Ariel_University</name>
            <open>1</open>
            <TimeStamp>
                <when>2017-12-03T08:37:52Z</when>
            </TimeStamp>
            <Point>
                <coordinates>35.2077533608269,32.10317578496331,690.8658803245012</coordinates>
            </Point>
        </Placemark>
        <Placemark>
            <name>Ariel_University</name>
            <open>1</open>
            <TimeStamp>
                <when>2017-12-03T08:37:52Z</when>
            </TimeStamp>
            <Point>
                <coordinates>35.2077533608269,32.10317578496331,690.8658803245012</coordinates>
            </Point>
        </Placemark>
        <Placemark>
            <name>Ariel_University</name>
            <open>1</open>
            <TimeStamp>
                <when>2017-12-03T08:37:52Z</when>
            </TimeStamp>
            <Point>
                <coordinates>35.2077533608269,32.10317578496331,690.8658803245012</coordinates>
            </Point>
        </Placemark>
        <Placemark>
            <name>Ariel_University</name>
            <open>1</open>
            <TimeStamp>
                <when>2017-12-03T08:37:52Z</when>
            </TimeStamp>
            <Point>
                <coordinates>35.2077533608269,32.10317578496331,690.8658803245012</coordinates>
            </Point>
        </Placemark>
        <Placemark>
            <name>Ariel_University</name>
            <open>1</open>
            <TimeStamp>
                <when>2017-12-03T08:37:52Z</when>
            </TimeStamp>
            <Point>
                <coordinates>35.2077533608269,32.10317578496331,690.8658803245012</coordinates>
            </Point>
        </Placemark>
        <Placemark>
            <name>Ariel_University</name>
            <open>1</open>
            <TimeStamp>
                <when>2017-12-03T08:37:55Z</when>
            </TimeStamp>
            <Point>
                <coordinates>35.20776621667453,32.103254567862166,690.8153989055744</coordinates>
            </Point>
        </Placemark>
        <Placemark>
            <name>Ariel_University</name>
            <open>1</open>
            <TimeStamp>
                <when>2017-12-03T08:37:55Z</when>
            </TimeStamp>
            <Point>
                <coordinates>35.20776621667453,32.103254567862166,690.8153989055744</coordinates>
            </Point>
        </Placemark>
        <Placemark>
            <name></name>
            <open>1</open>
            <TimeStamp>
                <when>2017-12-03T08:37:55Z</when>
            </TimeStamp>
            <Point>
                <coordinates>35.20776621667453,32.103254567862166,690.8153989055744</coordinates>
            </Point>
        </Placemark>
        <Placemark>
            <name></name>
            <open>1</open>
            <TimeStamp>
                <when>2017-12-03T08:37:55Z</when>
            </TimeStamp>
            <Point>
                <coordinates>35.20776621667453,32.103254567862166,690.8153989055744</coordinates>
            </Point>
        </Placemark>
        <Placemark>
            <name>Ariel_University</name>
            <open>1</open>
            <TimeStamp>
                <when>2017-12-03T08:37:55Z</when>
            </TimeStamp>
            <Point>
                <coordinates>35.20776621667453,32.103254567862166,690.8153989055744</coordinates>
            </Point>
        </Placemark>
        <Placemark>
            <name>richman</name>
            <open>1</open>
            <TimeStamp>
                <when>2017-12-03T08:37:55Z</when>
            </TimeStamp>
            <Point>
                <coordinates>35.20776621667453,32.103254567862166,690.8153989055744</coordinates>
            </Point>
        </Placemark>
        <Placemark>
            <name></name>
            <open>1</open>
            <TimeStamp>
                <when>2017-12-03T08:37:58Z</when>
            </TimeStamp>
            <Point>
                <coordinates>35.20778662747971,32.103323385092075,690.7687922307229</coordinates>
            </Point>
        </Placemark>
        <Placemark>
            <name>Ariel_University</name>
            <open>1</open>
            <TimeStamp>
                <when>2017-12-03T08:37:58Z</when>
            </TimeStamp>
            <Point>
                <coordinates>35.20778662747971,32.103323385092075,690.7687922307229</coordinates>
            </Point>
        </Placemark>
        <Placemark>
            <name>Ariel_University</name>
            <open>1</open>
            <TimeStamp>
                <when>2017-12-03T08:37:58Z</when>
            </TimeStamp>
            <Point>
                <coordinates>35.20778662747971,32.103323385092075,690.7687922307229</coordinates>
            </Point>
        </Placemark>
        <Placemark>
            <name>Ariel_University</name>
            <open>1</open>
            <TimeStamp>
                <when>2017-12-03T08:37:58Z</when>
            </TimeStamp>
            <Point>
                <coordinates>35.20778662747971,32.103323385092075,690.7687922307229</coordinates>
            </Point>
        </Placemark>
        <Placemark>
            <name>Ariel_University</name>
            <open>1</open>
            <TimeStamp>
                <when>2017-12-03T08:37:58Z</when>
            </TimeStamp>
            <Point>
                <coordinates>35.20778662747971,32.103323385092075,690.7687922307229</coordinates>
            </Point>
        </Placemark>
        <Placemark>
            <name>Ariel_University</name>
            <open>1</open>
            <TimeStamp>
                <when>2017-12-03T08:37:58Z</when>
            </TimeStamp>
            <Point>
                <coordinates>35.20778662747971,32.103323385092075,690.7687922307229</coordinates>
            </Point>
        </Placemark>
        <Placemark>
            <name></name>
            <open>1</open>
            <TimeStamp>
                <when>2017-12-03T08:37:58Z</when>
            </TimeStamp>
            <Point>
                <coordinates>35.20778662747971,32.103323385092075,690.7687922307229</coordinates>
            </Point>
        </Placemark>
        <Placemark>
            <name>Ariel_University</name>
            <open>1</open>
            <TimeStamp>
                <when>2017-12-03T08:37:58Z</when>
            </TimeStamp>
            <Point>
                <coordinates>35.20778662747971,32.103323385092075,690.7687922307229</coordinates>
            </Point>
        </Placemark>
        <Placemark>
            <name>Ariel_University</name>
            <open>1</open>
            <TimeStamp>
                <when>2017-12-03T08:37:58Z</when>
            </TimeStamp>
            <Point>
                <coordinates>35.20778662747971,32.103323385092075,690.7687922307229</coordinates>
            </Point>
        </Placemark>
        <Placemark>
            <name>Ariel_University</name>
            <open>1</open>
            <TimeStamp>
                <when>2017-12-03T08:38:04Z</when>
            </TimeStamp>
            <Point>
                <coordinates>35.20780552775216,32.10342051137385,690.6874448611455</coordinates>
            </Point>
        </Placemark>
        <Placemark>
            <name></name>
            <open>1</open>
            <TimeStamp>
                <when>2017-12-03T08:38:04Z</when>
            </TimeStamp>
            <Point>
                <coordinates>35.20780552775216,32.10342051137385,690.6874448611455</coordinates>
            </Point>
        </Placemark>
        <Placemark>
            <name>Ariel_University</name>
            <open>1</open>
            <TimeStamp>
                <when>2017-12-03T08:38:04Z</when>
            </TimeStamp>
            <Point>
                <coordinates>35.20780552775216,32.10342051137385,690.6874448611455</coordinates>
            </Point>
        </Placemark>
        <Placemark>
            <name></name>
            <open>1</open>
            <TimeStamp>
                <when>2017-12-03T08:38:04Z</when>
            </TimeStamp>
            <Point>
                <coordinates>35.20780552775216,32.10342051137385,690.6874448611455</coordinates>
            </Point>
        </Placemark>
        <Placemark>
            <name>Ariel_University</name>
            <open>1</open>
            <TimeStamp>
                <when>2017-12-03T08:38:07Z</when>
            </TimeStamp>
            <Point>
                <coordinates>35.20781063770308,32.10345291720662,690.6563444942567</coordinates>
            </Point>
        </Placemark>
        <Placemark>
            <name>Ariel_University</name>
            <open>1</open>
            <TimeStamp>
                <when>2017-12-03T08:38:10Z</when>
            </TimeStamp>
            <Point>
                <coordinates>35.20781291804855,32.10353355128237,690.5795129917332</coordinates>
            </Point>
        </Placemark>
        <Placemark>
            <name>Ariel_University</name>
            <open>1</open>
            <TimeStamp>
                <when>2017-12-03T08:38:10Z</when>
            </TimeStamp>
            <Point>
                <coordinates>35.20781291804855,32.10353355128237,690.5795129917332</coordinates>
            </Point>
        </Placemark>
        <Placemark>
            <name>Ariel_University</name>
            <open>1</open>
            <TimeStamp>
                <when>2017-12-03T08:38:10Z</when>
            </TimeStamp>
            <Point>
                <coordinates>35.20781291804855,32.10353355128237,690.5795129917332</coordinates>
            </Point>
        </Placemark>
        <Placemark>
            <name>Ariel_University</name>
            <open>1</open>
            <TimeStamp>
                <when>2017-12-03T08:38:10Z</when>
            </TimeStamp>
            <Point>
                <coordinates>35.20781291804855,32.10353355128237,690.5795129917332</coordinates>
            </Point>
        </Placemark>
        <Placemark>
            <name></name>
            <open>1</open>
            <TimeStamp>
                <when>2017-12-03T08:38:10Z</when>
            </TimeStamp>
            <Point>
                <coordinates>35.20781291804855,32.10353355128237,690.5795129917332</coordinates>
            </Point>
        </Placemark>
        <Placemark>
            <name></name>
            <open>1</open>
            <TimeStamp>
                <when>2017-12-03T08:38:10Z</when>
            </TimeStamp>
            <Point>
                <coordinates>35.20781291804855,32.10353355128237,690.5795129917332</coordinates>
            </Point>
        </Placemark>
        <Placemark>
            <name>Ariel_University</name>
            <open>1</open>
            <TimeStamp>
                <when>2017-12-03T08:38:10Z</when>
            </TimeStamp>
            <Point>
                <coordinates>35.20781291804855,32.10353355128237,690.5795129917332</coordinates>
            </Point>
        </Placemark>
        <Placemark>
            <name>Ariel_University</name>
            <open>1</open>
            <TimeStamp>
                <when>2017-12-03T08:38:10Z</when>
            </TimeStamp>
            <Point>
                <coordinates>35.20781291804855,32.10353355128237,690.5795129917332</coordinates>
            </Point>
        </Placemark>
        <Placemark>
            <name></name>
            <open>1</open>
            <TimeStamp>
                <when>2017-12-03T08:38:10Z</when>
            </TimeStamp>
            <Point>
                <coordinates>35.20781291804855,32.10353355128237,690.5795129917332</coordinates>
            </Point>
        </Placemark>
        <Placemark>
            <name>Ariel_University</name>
            <open>1</open>
            <TimeStamp>
                <when>2017-12-03T08:38:10Z</when>
            </TimeStamp>
            <Point>
                <coordinates>35.20781291804855,32.10353355128237,690.5795129917332</coordinates>
            </Point>
        </Placemark>
        <Placemark>
            <name>Ariel_University</name>
            <open>1</open>
            <TimeStamp>
                <when>2017-12-03T08:38:13Z</when>
            </TimeStamp>
            <Point>
                <coordinates>35.2078263595938,32.10371440835981,690.4758805974767</coordinates>
            </Point>
        </Placemark>
        <Placemark>
            <name></name>
            <open>1</open>
            <TimeStamp>
                <when>2017-12-03T08:38:13Z</when>
            </TimeStamp>
            <Point>
                <coordinates>35.2078263595938,32.10371440835981,690.4758805974767</coordinates>
            </Point>
        </Placemark>
        <Placemark>
            <name>Ariel_University</name>
            <open>1</open>
            <TimeStamp>
                <when>2017-12-03T08:38:13Z</when>
            </TimeStamp>
            <Point>
                <coordinates>35.2078263595938,32.10371440835981,690.4758805974767</coordinates>
            </Point>
        </Placemark>
        <Placemark>
            <name>Ariel_University</name>
            <open>1</open>
            <TimeStamp>
                <when>2017-12-03T08:38:13Z</when>
            </TimeStamp>
            <Point>
                <coordinates>35.2078263595938,32.10371440835981,690.4758805974767</coordinates>
            </Point>
        </Placemark>
        <Placemark>
            <name></name>
            <open>1</open>
            <TimeStamp>
                <when>2017-12-03T08:38:13Z</when>
            </TimeStamp>
            <Point>
                <coordinates>35.2078263595938,32.10371440835981,690.4758805974767</coordinates>
            </Point>
        </Placemark>
        <Placemark>
            <name></name>
            <open>1</open>
            <TimeStamp>
                <when>2017-12-03T08:38:13Z</when>
            </TimeStamp>
            <Point>
                <coordinates>35.2078263595938,32.10371440835981,690.4758805974767</coordinates>
            </Point>
        </Placemark>
        <Placemark>
            <name>Ariel_University</name>
            <open>1</open>
            <TimeStamp>
                <when>2017-12-03T08:38:13Z</when>
            </TimeStamp>
            <Point>
                <coordinates>35.2078263595938,32.10371440835981,690.4758805974767</coordinates>
            </Point>
        </Placemark>
        <Placemark>
            <name>Ariel_University</name>
            <open>1</open>
            <TimeStamp>
                <when>2017-12-03T08:38:13Z</when>
            </TimeStamp>
            <Point>
                <coordinates>35.2078263595938,32.10371440835981,690.4758805974767</coordinates>
            </Point>
        </Placemark>
        <Placemark>
            <name>Ariel_University</name>
            <open>1</open>
            <TimeStamp>
                <when>2017-12-03T08:38:13Z</when>
            </TimeStamp>
            <Point>
                <coordinates>35.2078263595938,32.10371440835981,690.4758805974767</coordinates>
            </Point>
        </Placemark>
        <Placemark>
            <name>Ariel_University</name>
            <open>1</open>
            <TimeStamp>
                <when>2017-12-03T08:38:16Z</when>
            </TimeStamp>
            <Point>
                <coordinates>35.20786377093516,32.10395115783471,690.3267397654319</coordinates>
            </Point>
        </Placemark>
        <Placemark>
            <name>Ariel_University</name>
            <open>1</open>
            <TimeStamp>
                <when>2017-12-03T08:38:16Z</when>
            </TimeStamp>
            <Point>
                <coordinates>35.20786377093516,32.10395115783471,690.3267397654319</coordinates>
            </Point>
        </Placemark>
        <Placemark>
            <name></name>
            <open>1</open>
            <TimeStamp>
                <when>2017-12-03T08:38:16Z</when>
            </TimeStamp>
            <Point>
                <coordinates>35.20786377093516,32.10395115783471,690.3267397654319</coordinates>
            </Point>
        </Placemark>
        <Placemark>
            <name>AUC_54_R</name>
            <open>1</open>
            <TimeStamp>
                <when>2017-12-03T08:38:19Z</when>
            </TimeStamp>
            <Point>
                <coordinates>35.20788174167889,32.10419402726119,690.126855604218</coordinates>
            </Point>
        </Placemark>
        <Placemark>
            <name>KCG_54</name>
            <open>1</open>
            <TimeStamp>
                <when>2017-12-03T08:38:19Z</when>
            </TimeStamp>
            <Point>
                <coordinates>35.20788174167889,32.10419402726119,690.126855604218</coordinates>
            </Point>
        </Placemark>
        <Placemark>
            <name>Ariel_University</name>
            <open>1</open>
            <TimeStamp>
                <when>2017-12-03T08:38:22Z</when>
            </TimeStamp>
            <Point>
                <coordinates>35.20788087493433,32.1044140461797,689.9496964638441</coordinates>
            </Point>
        </Placemark>
        <Placemark>
            <name>Ariel_University</name>
            <open>1</open>
            <TimeStamp>
                <when>2017-12-03T08:38:22Z</when>
            </TimeStamp>
            <Point>
                <coordinates>35.20788087493433,32.1044140461797,689.9496964638441</coordinates>
            </Point>
        </Placemark>
        <Placemark>
            <name>dlink</name>
            <open>1</open>
            <TimeStamp>
                <when>2017-12-03T08:38:22Z</when>
            </TimeStamp>
            <Point>
                <coordinates>35.20788087493433,32.1044140461797,689.9496964638441</coordinates>
            </Point>
        </Placemark>
        <Placemark>
            <name>Ariel_University</name>
            <open>1</open>
            <TimeStamp>
                <when>2017-12-03T08:38:22Z</when>
            </TimeStamp>
            <Point>
                <coordinates>35.20788087493433,32.1044140461797,689.9496964638441</coordinates>
            </Point>
        </Placemark>
        <Placemark>
            <name></name>
            <open>1</open>
            <TimeStamp>
                <when>2017-12-03T08:38:22Z</when>
            </TimeStamp>
            <Point>
                <coordinates>35.20788087493433,32.1044140461797,689.9496964638441</coordinates>
            </Point>
        </Placemark>
        <Placemark>
            <name></name>
            <open>1</open>
            <TimeStamp>
                <when>2017-12-03T08:38:22Z</when>
            </TimeStamp>
            <Point>
                <coordinates>35.20788087493433,32.1044140461797,689.9496964638441</coordinates>
            </Point>
        </Placemark>
        <Placemark>
            <name></name>
            <open>1</open>
            <TimeStamp>
                <when>2017-12-03T08:38:22Z</when>
            </TimeStamp>
            <Point>
                <coordinates>35.20788087493433,32.1044140461797,689.9496964638441</coordinates>
            </Point>
        </Placemark>
        <Placemark>
            <name>Afikim_Wifi</name>
            <open>1</open>
            <TimeStamp>
                <when>2017-12-03T08:38:22Z</when>
            </TimeStamp>
            <Point>
                <coordinates>35.20788087493433,32.1044140461797,689.9496964638441</coordinates>
            </Point>
        </Placemark>
        <Placemark>
            <name>Ariel_University</name>
            <open>1</open>
            <TimeStamp>
                <when>2017-12-03T08:38:25Z</when>
            </TimeStamp>
            <Point>
                <coordinates>35.20792963641949,32.10461272357625,689.6670161410832</coordinates>
            </Point>
        </Placemark>
        <Placemark>
            <name>Ariel_University</name>
            <open>1</open>
            <TimeStamp>
                <when>2017-12-03T08:38:25Z</when>
            </TimeStamp>
            <Point>
                <coordinates>35.20792963641949,32.10461272357625,689.6670161410832</coordinates>
            </Point>
        </Placemark>
        <Placemark>
            <name>Ariel_University</name>
            <open>1</open>
            <TimeStamp>
                <when>2017-12-03T08:38:25Z</when>
            </TimeStamp>
            <Point>
                <coordinates>35.20792963641949,32.10461272357625,689.6670161410832</coordinates>
            </Point>
        </Placemark>
        <Placemark>
            <name>Ariel_University</name>
            <open>1</open>
            <TimeStamp>
                <when>2017-12-03T08:38:25Z</when>
            </TimeStamp>
            <Point>
                <coordinates>35.20792963641949,32.10461272357625,689.6670161410832</coordinates>
            </Point>
        </Placemark>
        <Placemark>
            <name>Afikim_Wifi</name>
            <open>1</open>
            <TimeStamp>
                <when>2017-12-03T08:38:28Z</when>
            </TimeStamp>
            <Point>
                <coordinates>35.20808401590763,32.10473074431384,689.6319853475801</coordinates>
            </Point>
        </Placemark>
        <Placemark>
            <name>Ariel_University</name>
            <open>1</open>
            <TimeStamp>
                <when>2017-12-03T08:38:28Z</when>
            </TimeStamp>
            <Point>
                <coordinates>35.20808401590763,32.10473074431384,689.6319853475801</coordinates>
            </Point>
        </Placemark>
        <Placemark>
            <name>Aviramf phone</name>
            <open>1</open>
            <TimeStamp>
                <when>2017-12-03T08:38:28Z</when>
            </TimeStamp>
            <Point>
                <coordinates>35.20808401590763,32.10473074431384,689.6319853475801</coordinates>
            </Point>
        </Placemark>
        <Placemark>
            <name></name>
            <open>1</open>
            <TimeStamp>
                <when>2017-12-03T08:38:28Z</when>
            </TimeStamp>
            <Point>
                <coordinates>35.20808401590763,32.10473074431384,689.6319853475801</coordinates>
            </Point>
        </Placemark>
        <Placemark>
            <name></name>
            <open>1</open>
            <TimeStamp>
                <when>2017-12-03T08:38:28Z</when>
            </TimeStamp>
            <Point>
                <coordinates>35.20808401590763,32.10473074431384,689.6319853475801</coordinates>
            </Point>
        </Placemark>
        <Placemark>
            <name>Ariel_University</name>
            <open>1</open>
            <TimeStamp>
                <when>2017-12-03T08:38:28Z</when>
            </TimeStamp>
            <Point>
                <coordinates>35.20808401590763,32.10473074431384,689.6319853475801</coordinates>
            </Point>
        </Placemark>
        <Placemark>
            <name>Ariel_University</name>
            <open>1</open>
            <TimeStamp>
                <when>2017-12-03T08:38:40Z</when>
            </TimeStamp>
            <Point>
                <coordinates>35.208668934230765,32.105051656311176,689.230258092551</coordinates>
            </Point>
        </Placemark>
        <Placemark>
            <name></name>
            <open>1</open>
            <TimeStamp>
                <when>2017-12-03T08:38:43Z</when>
            </TimeStamp>
            <Point>
                <coordinates>35.20879924441711,32.10513904195773,688.9451857776014</coordinates>
            </Point>
        </Placemark>
        <Placemark>
            <name>magneto</name>
            <open>1</open>
            <TimeStamp>
                <when>2017-12-03T08:38:46Z</when>
            </TimeStamp>
            <Point>
                <coordinates>35.208934280260046,32.10522814587199,688.6530227065308</coordinates>
            </Point>
        </Placemark>
        <Placemark>
            <name></name>
            <open>1</open>
            <TimeStamp>
                <when>2017-12-03T08:38:49Z</when>
            </TimeStamp>
            <Point>
                <coordinates>35.20910319025765,32.10533997449653,688.4228173932764</coordinates>
            </Point>
        </Placemark>
        <Placemark>
            <name>Ariel_University</name>
            <open>1</open>
            <TimeStamp>
                <when>2017-12-03T08:38:49Z</when>
            </TimeStamp>
            <Point>
                <coordinates>35.20910319025765,32.10533997449653,688.4228173932764</coordinates>
            </Point>
        </Placemark>
        <Placemark>
            <name>outsense</name>
            <open>1</open>
            <TimeStamp>
                <when>2017-12-03T08:38:49Z</when>
            </TimeStamp>
            <Point>
                <coordinates>35.20910319025765,32.10533997449653,688.4228173932764</coordinates>
            </Point>
        </Placemark>
        <Placemark>
            <name>EVE</name>
            <open>1</open>
            <TimeStamp>
                <when>2017-12-03T08:38:49Z</when>
            </TimeStamp>
            <Point>
                <coordinates>35.20910319025765,32.10533997449653,688.4228173932764</coordinates>
            </Point>
        </Placemark>
        <Placemark>
            <name>Ariel_University</name>
            <open>1</open>
            <TimeStamp>
                <when>2017-12-03T08:38:49Z</when>
            </TimeStamp>
            <Point>
                <coordinates>35.20910319025765,32.10533997449653,688.4228173932764</coordinates>
            </Point>
        </Placemark>
        <Placemark>
            <name>Guest</name>
            <open>1</open>
            <TimeStamp>
                <when>2017-12-03T08:38:49Z</when>
            </TimeStamp>
            <Point>
                <coordinates>35.20910319025765,32.10533997449653,688.4228173932764</coordinates>
            </Point>
        </Placemark>
        <Placemark>
            <name></name>
            <open>1</open>
            <TimeStamp>
                <when>2017-12-03T08:38:49Z</when>
            </TimeStamp>
            <Point>
                <coordinates>35.20910319025765,32.10533997449653,688.4228173932764</coordinates>
            </Point>
        </Placemark>
        <Placemark>
            <name>Afikim_Wifi</name>
            <open>1</open>
            <TimeStamp>
                <when>2017-12-03T08:38:49Z</when>
            </TimeStamp>
            <Point>
                <coordinates>35.20910319025765,32.10533997449653,688.4228173932764</coordinates>
            </Point>
        </Placemark>
        <Placemark>
            <name>HP-Print-30-Officejet 7610</name>
            <open>1</open>
            <TimeStamp>
                <when>2017-12-03T08:38:49Z</when>
            </TimeStamp>
            <Point>
                <coordinates>35.20910319025765,32.10533997449653,688.4228173932764</coordinates>
            </Point>
        </Placemark>
        <Placemark>
            <name>Ariel_University</name>
            <open>1</open>
            <TimeStamp>
                <when>2017-12-03T08:38:49Z</when>
            </TimeStamp>
            <Point>
                <coordinates>35.20910319025765,32.10533997449653,688.4228173932764</coordinates>
            </Point>
        </Placemark>
        <Placemark>
            <name>ShapeDo</name>
            <open>1</open>
            <TimeStamp>
                <when>2017-12-03T08:38:52Z</when>
            </TimeStamp>
            <Point>
                <coordinates>35.2092873567155,32.10545968983351,688.3373272543101</coordinates>
            </Point>
        </Placemark>
        <Placemark>
            <name>Neuropplied</name>
            <open>1</open>
            <TimeStamp>
                <when>2017-12-03T08:38:52Z</when>
            </TimeStamp>
            <Point>
                <coordinates>35.2092873567155,32.10545968983351,688.3373272543101</coordinates>
            </Point>
        </Placemark>
        <Placemark>
            <name>shapedo</name>
            <open>1</open>
            <TimeStamp>
                <when>2017-12-03T08:38:52Z</when>
            </TimeStamp>
            <Point>
                <coordinates>35.2092873567155,32.10545968983351,688.3373272543101</coordinates>
            </Point>
        </Placemark>
        <Placemark>
            <name>iagree</name>
            <open>1</open>
            <TimeStamp>
                <when>2017-12-03T08:38:52Z</when>
            </TimeStamp>
            <Point>
                <coordinates>35.2092873567155,32.10545968983351,688.3373272543101</coordinates>
            </Point>
        </Placemark>
        <Placemark>
            <name>Guest</name>
            <open>1</open>
            <TimeStamp>
                <when>2017-12-03T08:38:52Z</when>
            </TimeStamp>
            <Point>
                <coordinates>35.2092873567155,32.10545968983351,688.3373272543101</coordinates>
            </Point>
        </Placemark>
        <Placemark>
            <name></name>
            <open>1</open>
            <TimeStamp>
                <when>2017-12-03T08:38:55Z</when>
            </TimeStamp>
            <Point>
                <coordinates>35.20951077753986,32.10559677902265,688.4287285025864</coordinates>
            </Point>
        </Placemark>
        <Placemark>
            <name></name>
            <open>1</open>
            <TimeStamp>
                <when>2017-12-03T08:38:55Z</when>
            </TimeStamp>
            <Point>
                <coordinates>35.20951077753986,32.10559677902265,688.4287285025864</coordinates>
            </Point>
        </Placemark>
        <Placemark>
            <name>Ariel_University</name>
            <open>1</open>
            <TimeStamp>
                <when>2017-12-03T08:38:55Z</when>
            </TimeStamp>
            <Point>
                <coordinates>35.20951077753986,32.10559677902265,688.4287285025864</coordinates>
            </Point>
        </Placemark>
        <Placemark>
            <name>YICarCam_00d0f1</name>
            <open>1</open>
            <TimeStamp>
                <when>2017-12-03T08:38:55Z</when>
            </TimeStamp>
            <Point>
                <coordinates>35.20951077753986,32.10559677902265,688.4287285025864</coordinates>
            </Point>
        </Placemark>
        <Placemark>
            <name>NIPPON_2516</name>
            <open>1</open>
            <TimeStamp>
                <when>2017-12-03T08:38:58Z</when>
            </TimeStamp>
            <Point>
                <coordinates>35.2097599664662,32.10572050842588,688.5550300637956</coordinates>
            </Point>
        </Placemark>
        <Placemark>
            <name></name>
            <open>1</open>
            <TimeStamp>
                <when>2017-12-03T08:38:58Z</when>
            </TimeStamp>
            <Point>
                <coordinates>35.2097599664662,32.10572050842588,688.5550300637956</coordinates>
            </Point>
        </Placemark>
        <Placemark>
            <name>Orange G2_4113</name>
            <open>1</open>
            <TimeStamp>
                <when>2017-12-03T08:38:58Z</when>
            </TimeStamp>
            <Point>
                <coordinates>35.2097599664662,32.10572050842588,688.5550300637956</coordinates>
            </Point>
        </Placemark>
        <Placemark>
            <name>iagree</name>
            <open>1</open>
            <TimeStamp>
                <when>2017-12-03T08:38:58Z</when>
            </TimeStamp>
            <Point>
                <coordinates>35.2097599664662,32.10572050842588,688.5550300637956</coordinates>
            </Point>
        </Placemark>
        <Placemark>
            <name>Afikim-73925</name>
            <open>1</open>
            <TimeStamp>
                <when>2017-12-03T08:38:58Z</when>
            </TimeStamp>
            <Point>
                <coordinates>35.2097599664662,32.10572050842588,688.5550300637956</coordinates>
            </Point>
        </Placemark>
        <Placemark>
            <name>Ariel_University</name>
            <open>1</open>
            <TimeStamp>
                <when>2017-12-03T08:38:58Z</when>
            </TimeStamp>
            <Point>
                <coordinates>35.2097599664662,32.10572050842588,688.5550300637956</coordinates>
            </Point>
        </Placemark>
        <Placemark>
            <name>Ariel_University</name>
            <open>1</open>
            <TimeStamp>
                <when>2017-12-03T08:38:58Z</when>
            </TimeStamp>
            <Point>
                <coordinates>35.2097599664662,32.10572050842588,688.5550300637956</coordinates>
            </Point>
        </Placemark>
        <Placemark>
            <name>Cartiheal</name>
            <open>1</open>
            <TimeStamp>
                <when>2017-12-03T08:38:58Z</when>
            </TimeStamp>
            <Point>
                <coordinates>35.2097599664662,32.10572050842588,688.5550300637956</coordinates>
            </Point>
        </Placemark>
        <Placemark>
            <name></name>
            <open>1</open>
            <TimeStamp>
                <when>2017-12-03T08:38:58Z</when>
            </TimeStamp>
            <Point>
                <coordinates>35.2097599664662,32.10572050842588,688.5550300637956</coordinates>
            </Point>
        </Placemark>
        <Placemark>
            <name>Ariel_University</name>
            <open>1</open>
            <TimeStamp>
                <when>2017-12-03T08:38:58Z</when>
            </TimeStamp>
            <Point>
                <coordinates>35.2097599664662,32.10572050842588,688.5550300637956</coordinates>
            </Point>
        </Placemark>
        <Placemark>
            <name>PEPWAVE_C99D</name>
            <open>1</open>
            <TimeStamp>
                <when>2017-12-03T08:39:01Z</when>
            </TimeStamp>
            <Point>
                <coordinates>35.210051750641114,32.10583719022133,688.5948451994292</coordinates>
            </Point>
        </Placemark>
        <Placemark>
            <name>Afikim-73925</name>
            <open>1</open>
            <TimeStamp>
                <when>2017-12-03T08:39:01Z</when>
            </TimeStamp>
            <Point>
                <coordinates>35.210051750641114,32.10583719022133,688.5948451994292</coordinates>
            </Point>
        </Placemark>
        <Placemark>
            <name>Ariel_University</name>
            <open>1</open>
            <TimeStamp>
                <when>2017-12-03T08:39:01Z</when>
            </TimeStamp>
            <Point>
                <coordinates>35.210051750641114,32.10583719022133,688.5948451994292</coordinates>
            </Point>
        </Placemark>
        <Placemark>
            <name>PEPWAVE_9481</name>
            <open>1</open>
            <TimeStamp>
                <when>2017-12-03T08:39:01Z</when>
            </TimeStamp>
            <Point>
                <coordinates>35.210051750641114,32.10583719022133,688.5948451994292</coordinates>
            </Point>
        </Placemark>
        <Placemark>
            <name>magneto</name>
            <open>1</open>
            <TimeStamp>
                <when>2017-12-03T08:39:01Z</when>
            </TimeStamp>
            <Point>
                <coordinates>35.210051750641114,32.10583719022133,688.5948451994292</coordinates>
            </Point>
        </Placemark>
        <Placemark>
            <name>Ariel_University</name>
            <open>1</open>
            <TimeStamp>
                <when>2017-12-03T08:39:01Z</when>
            </TimeStamp>
            <Point>
                <coordinates>35.210051750641114,32.10583719022133,688.5948451994292</coordinates>
            </Point>
        </Placemark>
        <Placemark>
            <name>PEPWAVE_9481</name>
            <open>1</open>
            <TimeStamp>
                <when>2017-12-03T08:39:04Z</when>
            </TimeStamp>
            <Point>
                <coordinates>35.21038076777716,32.10593532045871,688.6045855255679</coordinates>
            </Point>
        </Placemark>
        <Placemark>
            <name></name>
            <open>1</open>
            <TimeStamp>
                <when>2017-12-03T08:39:04Z</when>
            </TimeStamp>
            <Point>
                <coordinates>35.21038076777716,32.10593532045871,688.6045855255679</coordinates>
            </Point>
        </Placemark>
        <Placemark>
            <name>Afikim_Wifi</name>
            <open>1</open>
            <TimeStamp>
                <when>2017-12-03T08:39:04Z</when>
            </TimeStamp>
            <Point>
                <coordinates>35.21038076777716,32.10593532045871,688.6045855255679</coordinates>
            </Point>
        </Placemark>
        <Placemark>
            <name>Ariel_University</name>
            <open>1</open>
            <TimeStamp>
                <when>2017-12-03T08:39:04Z</when>
            </TimeStamp>
            <Point>
                <coordinates>35.21038076777716,32.10593532045871,688.6045855255679</coordinates>
            </Point>
        </Placemark>
        <Placemark>
            <name>YICarCam_00d0f1</name>
            <open>1</open>
            <TimeStamp>
                <when>2017-12-03T08:39:04Z</when>
            </TimeStamp>
            <Point>
                <coordinates>35.21038076777716,32.10593532045871,688.6045855255679</coordinates>
            </Point>
        </Placemark>
        <Placemark>
            <name>Guest</name>
            <open>1</open>
            <TimeStamp>
                <when>2017-12-03T08:39:04Z</when>
            </TimeStamp>
            <Point>
                <coordinates>35.21038076777716,32.10593532045871,688.6045855255679</coordinates>
            </Point>
        </Placemark>
        <Placemark>
            <name>EVE</name>
            <open>1</open>
            <TimeStamp>
                <when>2017-12-03T08:39:04Z</when>
            </TimeStamp>
            <Point>
                <coordinates>35.21038076777716,32.10593532045871,688.6045855255679</coordinates>
            </Point>
        </Placemark>
        <Placemark>
            <name>Ariel_University</name>
            <open>1</open>
            <TimeStamp>
                <when>2017-12-03T08:39:04Z</when>
            </TimeStamp>
            <Point>
                <coordinates>35.21038076777716,32.10593532045871,688.6045855255679</coordinates>
            </Point>
        </Placemark>
        <Placemark>
            <name>Ariel_University</name>
            <open>1</open>
            <TimeStamp>
                <when>2017-12-03T08:39:04Z</when>
            </TimeStamp>
            <Point>
                <coordinates>35.21038076777716,32.10593532045871,688.6045855255679</coordinates>
            </Point>
        </Placemark>
        <Placemark>
            <name>Ariel_University</name>
            <open>1</open>
            <TimeStamp>
                <when>2017-12-03T08:39:04Z</when>
            </TimeStamp>
            <Point>
                <coordinates>35.21038076777716,32.10593532045871,688.6045855255679</coordinates>
            </Point>
        </Placemark>
        <Placemark>
            <name>Afikim-73925</name>
            <open>1</open>
            <TimeStamp>
                <when>2017-12-03T08:39:07Z</when>
            </TimeStamp>
            <Point>
                <coordinates>35.21072710051793,32.10601667872536,688.676436763853</coordinates>
            </Point>
        </Placemark>
        <Placemark>
            <name></name>
            <open>1</open>
            <TimeStamp>
                <when>2017-12-03T08:39:07Z</when>
            </TimeStamp>
            <Point>
                <coordinates>35.21072710051793,32.10601667872536,688.676436763853</coordinates>
            </Point>
        </Placemark>
        <Placemark>
            <name></name>
            <open>1</open>
            <TimeStamp>
                <when>2017-12-03T08:39:07Z</when>
            </TimeStamp>
            <Point>
                <coordinates>35.21072710051793,32.10601667872536,688.676436763853</coordinates>
            </Point>
        </Placemark>
        <Placemark>
            <name>Afikim-73925</name>
            <open>1</open>
            <TimeStamp>
                <when>2017-12-03T08:39:10Z</when>
            </TimeStamp>
            <Point>
                <coordinates>35.21106968179408,32.106089276564596,688.7624378298848</coordinates>
            </Point>
        </Placemark>
        <Placemark>
            <name>PEPWAVE_C99D</name>
            <open>1</open>
            <TimeStamp>
                <when>2017-12-03T08:39:10Z</when>
            </TimeStamp>
            <Point>
                <coordinates>35.21106968179408,32.106089276564596,688.7624378298848</coordinates>
            </Point>
        </Placemark>
        <Placemark>
            <name>Afikim_Wifi</name>
            <open>1</open>
            <TimeStamp>
                <when>2017-12-03T08:39:10Z</when>
            </TimeStamp>
            <Point>
                <coordinates>35.21106968179408,32.106089276564596,688.7624378298848</coordinates>
            </Point>
        </Placemark>
        <Placemark>
            <name></name>
            <open>1</open>
            <TimeStamp>
                <when>2017-12-03T08:39:10Z</when>
            </TimeStamp>
            <Point>
                <coordinates>35.21106968179408,32.106089276564596,688.7624378298848</coordinates>
            </Point>
        </Placemark>
        <Placemark>
            <name>Gateway</name>
            <open>1</open>
            <TimeStamp>
                <when>2017-12-03T08:39:10Z</when>
            </TimeStamp>
            <Point>
                <coordinates>35.21106968179408,32.106089276564596,688.7624378298848</coordinates>
            </Point>
        </Placemark>
        <Placemark>
            <name>Ariel_University</name>
            <open>1</open>
            <TimeStamp>
                <when>2017-12-03T08:39:10Z</when>
            </TimeStamp>
            <Point>
                <coordinates>35.21106968179408,32.106089276564596,688.7624378298848</coordinates>
            </Point>
        </Placemark>
        <Placemark>
            <name>Ariel_University</name>
            <open>1</open>
            <TimeStamp>
                <when>2017-12-03T08:39:10Z</when>
            </TimeStamp>
            <Point>
                <coordinates>35.21106968179408,32.106089276564596,688.7624378298848</coordinates>
            </Point>
        </Placemark>
        <Placemark>
            <name>Ariel_University</name>
            <open>1</open>
            <TimeStamp>
                <when>2017-12-03T08:39:10Z</when>
            </TimeStamp>
            <Point>
                <coordinates>35.21106968179408,32.106089276564596,688.7624378298848</coordinates>
            </Point>
        </Placemark>
        <Placemark>
            <name></name>
            <open>1</open>
            <TimeStamp>
                <when>2017-12-03T08:39:10Z</when>
            </TimeStamp>
            <Point>
                <coordinates>35.21106968179408,32.106089276564596,688.7624378298848</coordinates>
            </Point>
        </Placemark>
        <Placemark>
            <name>magneto</name>
            <open>1</open>
            <TimeStamp>
                <when>2017-12-03T08:39:10Z</when>
            </TimeStamp>
            <Point>
                <coordinates>35.21106968179408,32.106089276564596,688.7624378298848</coordinates>
            </Point>
        </Placemark>
        <Placemark>
            <name></name>
            <open>1</open>
            <TimeStamp>
                <when>2017-12-03T08:39:13Z</when>
            </TimeStamp>
            <Point>
                <coordinates>35.21138726608906,32.10614939016676,688.8993666020681</coordinates>
            </Point>
        </Placemark>
        <Placemark>
            <name>TOP-SECRET</name>
            <open>1</open>
            <TimeStamp>
                <when>2017-12-03T08:39:13Z</when>
            </TimeStamp>
            <Point>
                <coordinates>35.21138726608906,32.10614939016676,688.8993666020681</coordinates>
            </Point>
        </Placemark>
        <Placemark>
            <name>Ariel_University</name>
            <open>1</open>
            <TimeStamp>
                <when>2017-12-03T08:39:13Z</when>
            </TimeStamp>
            <Point>
                <coordinates>35.21138726608906,32.10614939016676,688.8993666020681</coordinates>
            </Point>
        </Placemark>
        <Placemark>
            <name></name>
            <open>1</open>
            <TimeStamp>
                <when>2017-12-03T08:39:13Z</when>
            </TimeStamp>
            <Point>
                <coordinates>35.21138726608906,32.10614939016676,688.8993666020681</coordinates>
            </Point>
        </Placemark>
        <Placemark>
            <name>Afikim_Wifi</name>
            <open>1</open>
            <TimeStamp>
                <when>2017-12-03T08:39:13Z</when>
            </TimeStamp>
            <Point>
                <coordinates>35.21138726608906,32.10614939016676,688.8993666020681</coordinates>
            </Point>
        </Placemark>
        <Placemark>
            <name>PEPWAVE_9481</name>
            <open>1</open>
            <TimeStamp>
                <when>2017-12-03T08:39:13Z</when>
            </TimeStamp>
            <Point>
                <coordinates>35.21138726608906,32.10614939016676,688.8993666020681</coordinates>
            </Point>
        </Placemark>
        <Placemark>
            <name></name>
            <open>1</open>
            <TimeStamp>
                <when>2017-12-03T08:39:13Z</when>
            </TimeStamp>
            <Point>
                <coordinates>35.21138726608906,32.10614939016676,688.8993666020681</coordinates>
            </Point>
        </Placemark>
        <Placemark>
            <name>Bezeq-NGN_E77EB9</name>
            <open>1</open>
            <TimeStamp>
                <when>2017-12-03T08:39:16Z</when>
            </TimeStamp>
            <Point>
                <coordinates>35.21168763894033,32.106181954122206,689.1981253462078</coordinates>
            </Point>
        </Placemark>
        <Placemark>
            <name></name>
            <open>1</open>
            <TimeStamp>
                <when>2017-12-03T08:39:16Z</when>
            </TimeStamp>
            <Point>
                <coordinates>35.21168763894033,32.106181954122206,689.1981253462078</coordinates>
            </Point>
        </Placemark>
        <Placemark>
            <name></name>
            <open>1</open>
            <TimeStamp>
                <when>2017-12-03T08:39:19Z</when>
            </TimeStamp>
            <Point>
                <coordinates>35.21194838735254,32.106211489963755,689.2763252871639</coordinates>
            </Point>
        </Placemark>
        <Placemark>
            <name>Afikim_Wifi</name>
            <open>1</open>
            <TimeStamp>
                <when>2017-12-03T08:39:19Z</when>
            </TimeStamp>
            <Point>
                <coordinates>35.21194838735254,32.106211489963755,689.2763252871639</coordinates>
            </Point>
        </Placemark>
        <Placemark>
            <name>Police_Shomron </name>
            <open>1</open>
            <TimeStamp>
                <when>2017-12-03T08:39:19Z</when>
            </TimeStamp>
            <Point>
                <coordinates>35.21194838735254,32.106211489963755,689.2763252871639</coordinates>
            </Point>
        </Placemark>
        <Placemark>
            <name></name>
            <open>1</open>
            <TimeStamp>
                <when>2017-12-03T08:39:19Z</when>
            </TimeStamp>
            <Point>
                <coordinates>35.21194838735254,32.106211489963755,689.2763252871639</coordinates>
            </Point>
        </Placemark>
        <Placemark>
            <name>Afikim_Wifi</name>
            <open>1</open>
            <TimeStamp>
                <when>2017-12-03T08:39:19Z</when>
            </TimeStamp>
            <Point>
                <coordinates>35.21194838735254,32.106211489963755,689.2763252871639</coordinates>
            </Point>
        </Placemark>
        <Placemark>
            <name></name>
            <open>1</open>
            <TimeStamp>
                <when>2017-12-03T08:39:22Z</when>
            </TimeStamp>
            <Point>
                <coordinates>35.212141756525845,32.10617159646305,689.3311852539475</coordinates>
            </Point>
        </Placemark>
        <Placemark>
            <name>IT-MNG</name>
            <open>1</open>
            <TimeStamp>
                <when>2017-12-03T08:39:25Z</when>
            </TimeStamp>
            <Point>
                <coordinates>35.21216518835194,32.105995367836144,689.5950093554168</coordinates>
            </Point>
        </Placemark>
        <Placemark>
            <name>Ariel_University</name>
            <open>1</open>
            <TimeStamp>
                <when>2017-12-03T08:39:25Z</when>
            </TimeStamp>
            <Point>
                <coordinates>35.21216518835194,32.105995367836144,689.5950093554168</coordinates>
            </Point>
        </Placemark>
        <Placemark>
            <name>KCG_20</name>
            <open>1</open>
            <TimeStamp>
                <when>2017-12-03T08:39:25Z</when>
            </TimeStamp>
            <Point>
                <coordinates>35.21216518835194,32.105995367836144,689.5950093554168</coordinates>
            </Point>
        </Placemark>
        <Placemark>
            <name>Police_Shomron </name>
            <open>1</open>
            <TimeStamp>
                <when>2017-12-03T08:39:28Z</when>
            </TimeStamp>
            <Point>
                <coordinates>35.21207187967583,32.10578181130056,690.5323471428377</coordinates>
            </Point>
        </Placemark>
        <Placemark>
            <name>Ariel_University</name>
            <open>1</open>
            <TimeStamp>
                <when>2017-12-03T08:39:28Z</when>
            </TimeStamp>
            <Point>
                <coordinates>35.21207187967583,32.10578181130056,690.5323471428377</coordinates>
            </Point>
        </Placemark>
        <Placemark>
            <name>IT-MNG</name>
            <open>1</open>
            <TimeStamp>
                <when>2017-12-03T08:39:28Z</when>
            </TimeStamp>
            <Point>
                <coordinates>35.21207187967583,32.10578181130056,690.5323471428377</coordinates>
            </Point>
        </Placemark>
        <Placemark>
            <name>Ariel_University</name>
            <open>1</open>
            <TimeStamp>
                <when>2017-12-03T08:39:31Z</when>
            </TimeStamp>
            <Point>
                <coordinates>35.211990487672665,32.10558929316102,691.0898029756444</coordinates>
            </Point>
        </Placemark>
        <Placemark>
            <name>IT-MNG</name>
            <open>1</open>
            <TimeStamp>
                <when>2017-12-03T08:39:31Z</when>
            </TimeStamp>
            <Point>
                <coordinates>35.211990487672665,32.10558929316102,691.0898029756444</coordinates>
            </Point>
        </Placemark>
        <Placemark>
            <name>KCG_20</name>
            <open>1</open>
            <TimeStamp>
                <when>2017-12-03T08:39:31Z</when>
            </TimeStamp>
            <Point>
                <coordinates>35.211990487672665,32.10558929316102,691.0898029756444</coordinates>
            </Point>
        </Placemark>
        <Placemark>
            <name>Ariel_University</name>
            <open>1</open>
            <TimeStamp>
                <when>2017-12-03T08:39:31Z</when>
            </TimeStamp>
            <Point>
                <coordinates>35.211990487672665,32.10558929316102,691.0898029756444</coordinates>
            </Point>
        </Placemark>
        <Placemark>
            <name>Ariel_University</name>
            <open>1</open>
            <TimeStamp>
                <when>2017-12-03T08:39:34Z</when>
            </TimeStamp>
            <Point>
                <coordinates>35.21192983211315,32.105448644069995,691.5885470680463</coordinates>
            </Point>
        </Placemark>
        <Placemark>
            <name>Ariel_University</name>
            <open>1</open>
            <TimeStamp>
                <when>2017-12-03T08:39:34Z</when>
            </TimeStamp>
            <Point>
                <coordinates>35.21192983211315,32.105448644069995,691.5885470680463</coordinates>
            </Point>
        </Placemark>
        <Placemark>
            <name>Ariel_University</name>
            <open>1</open>
            <TimeStamp>
                <when>2017-12-03T08:39:34Z</when>
            </TimeStamp>
            <Point>
                <coordinates>35.21192983211315,32.105448644069995,691.5885470680463</coordinates>
            </Point>
        </Placemark>
        <Placemark>
            <name>Ariel_University</name>
            <open>1</open>
            <TimeStamp>
                <when>2017-12-03T08:39:34Z</when>
            </TimeStamp>
            <Point>
                <coordinates>35.21192983211315,32.105448644069995,691.5885470680463</coordinates>
            </Point>
        </Placemark>
        <Placemark>
            <name></name>
            <open>1</open>
            <TimeStamp>
                <when>2017-12-03T08:39:34Z</when>
            </TimeStamp>
            <Point>
                <coordinates>35.21192983211315,32.105448644069995,691.5885470680463</coordinates>
            </Point>
        </Placemark>
        <Placemark>
            <name>Ariel_University</name>
            <open>1</open>
            <TimeStamp>
                <when>2017-12-03T08:39:37Z</when>
            </TimeStamp>
            <Point>
                <coordinates>35.21187487697705,32.105338150765675,692.0554072332519</coordinates>
            </Point>
        </Placemark>
        <Placemark>
            <name>Ariel_University</name>
            <open>1</open>
            <TimeStamp>
                <when>2017-12-03T08:39:37Z</when>
            </TimeStamp>
            <Point>
                <coordinates>35.21187487697705,32.105338150765675,692.0554072332519</coordinates>
            </Point>
        </Placemark>
        <Placemark>
            <name>Ariel_University</name>
            <open>1</open>
            <TimeStamp>
                <when>2017-12-03T08:39:40Z</when>
            </TimeStamp>
            <Point>
                <coordinates>35.211801239749164,32.10524361261086,692.3384221268948</coordinates>
            </Point>
        </Placemark>
        <Placemark>
            <name>IT-MNG</name>
            <open>1</open>
            <TimeStamp>
                <when>2017-12-03T08:39:40Z</when>
            </TimeStamp>
            <Point>
                <coordinates>35.211801239749164,32.10524361261086,692.3384221268948</coordinates>
            </Point>
        </Placemark>
        <Placemark>
            <name>Ariel_University</name>
            <open>1</open>
            <TimeStamp>
                <when>2017-12-03T08:39:40Z</when>
            </TimeStamp>
            <Point>
                <coordinates>35.211801239749164,32.10524361261086,692.3384221268948</coordinates>
            </Point>
        </Placemark>
        <Placemark>
            <name>Ariel_University</name>
            <open>1</open>
            <TimeStamp>
                <when>2017-12-03T08:39:43Z</when>
            </TimeStamp>
            <Point>
                <coordinates>35.21178480914369,32.105210120790346,692.3547334737405</coordinates>
            </Point>
        </Placemark>
        <Placemark>
            <name>Ariel_University</name>
            <open>1</open>
            <TimeStamp>
                <when>2017-12-03T08:39:46Z</when>
            </TimeStamp>
            <Point>
                <coordinates>35.21178480914369,32.105210120790346,692.3483456627454</coordinates>
            </Point>
        </Placemark>
        <Placemark>
            <name></name>
            <open>1</open>
            <TimeStamp>
                <when>2017-12-03T08:39:49Z</when>
            </TimeStamp>
            <Point>
                <coordinates>35.21178480914369,32.105210120790346,692.3377115782242</coordinates>
            </Point>
        </Placemark>
    </Document>
</kml>
